"country","city","metabolite","value_current","value_previous","year_current","year_previous","change_percent","change_percent2","SiteID","location","latitude","longitude","population","institution","website"
"AT","Graz","MDMA",15.53,23.73,2024,2023,-34.5554150863885,"decrease","AT001","ARA Graz","47.070713","15.439504",425000,"Medical University Innsbruck","N/A"
"AT","Hall-Wattens","MDMA",7.05,7.61,2024,2023,-7.3587385019711,"stable","AT002","Abwasserverband Hall in Tirol-Fritzens","47.29168","11.59284",76000,"Medical University Innsbruck","N/A"
"AT","Innsbruck","MDMA",22.71,19.57,2024,2023,16.0449667858968,"increase","AT004","ARA Innsbruck","47.269212","11.404102",249000,"Medical University Innsbruck","N/A"
"AT","Kapfenberg","MDMA",7.79,5.77,2024,2023,35.0086655112652,"increase","AT005","Kläranlage Kapfenberg","47.443562","15.2901",36000,"Medical University Innsbruck","N/A"
"AT","Klagenfurt","MDMA",9.5,7.09,2024,2023,33.9915373765867,"increase","AT006","Wasserverband Wörthersee Ost","46.635700","14.311817",232000,"Medical University Innsbruck","N/A"
"AT","Knittelfeld","MDMA",5.13,6.49,2024,2023,-20.9553158705701,"decrease","AT008","AWV Knittelfeld","47.215950","14.82719",37000,"Medical University Innsbruck","N/A"
"AT","Kufstein","MDMA",8.8,8.59,2024,2023,2.44470314318977,"stable","AT010","Abwasserverband Kufstein","47.582958","12.17077",45000,"Medical University Innsbruck","N/A"
"AT","Purgstall","MDMA",23.64,13.22,2024,2023,78.8199697428139,"increase","AT013","GAV Erlauftal","48.057812","15.13545",7600,"Medical University Innsbruck","N/A"
"AT","Region Millstättersee","MDMA",5.89,3.55,2024,2023,65.9154929577465,"increase","AT011","Wasserverband Millstaettersee","46.81924","13.52146",93000,"Medical University Innsbruck","N/A"
"AT","Ried im Innkreis","MDMA",6.3,,2024,,,"no previous data","AT014","Reinhaltungsverband Ried im Innkreis","48.2254548","13.478626",28000,"Medical University Innsbruck","N/A"
"AT","Salzburg","MDMA",8.85,6.9,2024,2023,28.2608695652174,"increase","AT015","ARA Siggerwiesen","47.811195","13.033229",415000,"Medical University Innsbruck","N/A"
"AT","Steyr","MDMA",12.16,15.78,2024,2023,-22.9404309252218,"decrease","AT016","Reinhaltungsverband Steyr und Umgebung","48.050090","14.41827",82000,"Medical University Innsbruck","N/A"
"AT","Strass im Zillertal","MDMA",9.74,15.54,2024,2023,-37.3230373230373,"decrease","AT017","AIZ Abwasserverband","47.395748","11.82211",130000,"Medical University Innsbruck","N/A"
"AT","Wasserverband Hofsteig","MDMA",9.59,5.6,2024,2023,71.25,"increase","AT003","ARA Hofsteig","47.4852","9.6762",105000,"Medical University Innsbruck","N/A"
"AT","Wien","MDMA",21.05,18.67,2024,2023,12.747723620782,"increase","AT018","Hauptkläranlage Wien","48.210033","16.363449",3166000,"Medical University Innsbruck","N/A"
"AT","Wiener Neustadt","MDMA",11.86,10.63,2024,2023,11.5710253998118,"increase","AT019","AWV Wr. Neustadt-Süd","47.802790","16.23318",140000,"Medical University Innsbruck","N/A"
"AT","Wildon","MDMA",6.02,10.53,2024,2023,-42.8300094966762,"decrease","AT020","Abwasserverband Grazerfeld","46.885708","15.518532",96000,"Medical University Innsbruck","N/A"
"BE","Antwerp Zuid","MDMA",140.31,318.23,2024,2023,-55.9092480281557,"decrease","BE002","Antwerpen-Zuid","51.2","4.39",143240,"Toxicological Centre","N/A"
"BE","Brussels","MDMA",76.97,30.02,2024,2023,156.395736175883,"increase","BE005","Brussel-Noord","50.86","4.36",1030306,"Toxicological Centre","N/A"
"CY","Agia Napa","MDMA",4.53,4.12,2024,2023,9.95145631067961,"stable","CY001","Sewage treatment plant of Agia Napa-Paralimni","34.99075444704176","33.9999814169353",55382,"Nireas","N/A"
"CY","Larnaca","MDMA",1.4,1.01,2024,2023,38.6138613861386,"increase","CY002","Sewage Bioard of Larnaca","34.915164353041064","33.6361988334665",86577,"Nireas","N/A"
"CY","Limassol","MDMA",6.81,3.22,2024,2023,111.490683229814,"increase","CY003","Sewerage Board of Limassol-Amathus (SBLA)","34.69","33.02",213812,"Nireas","N/A"
"CY","Nicosia (2)","MDMA",1.62,2.99,2024,2023,-45.819397993311,"decrease","CY005","Sewage treatment plant of Pano Deftera (Anthoupoli)-Sewerage Board of Nicosia; Sewage treatment plant of Vathia Gonia-Sewerage Board of Nicosia","35.17","33.4",111510,"N/A","N/A"
"CY","Paphos","MDMA",1.69,5.29,2024,2023,-68.0529300567108,"decrease","CY007","Sewage Borad of Pafos","34.775853627551825","32.4215949998929",107501,"Nireas","N/A"
"CZ","Brno","MDMA",16.12,15.51,2024,2023,3.93294648613798,"stable","CZ001","Waterworks and sewage of city Brno ","49.19506","16.606837",445000,"FFPW USB","N/A"
"CZ","České Budějovice","MDMA",14.72,6.97,2024,2023,111.190817790531,"increase","CZ002","UCOV CB","48.96","14.46",110000,"FFPW USB","N/A"
"CZ","Karlovy Vary","MDMA",14.32,12.8,2024,2023,11.875,"increase","CZ003","ČOV Karloy Vary","50.23204","12.87099",67544,"T.G.Masaryk Water Research Institute","N/A"
"CZ","Ostrava","MDMA",26.41,9.71,2024,2023,171.987641606591,"increase","CZ004","ÚČOV Ostrava","49.833864","18.281034",250000,"T.G.Masaryk Water Research Institute","N/A"
"CZ","Plzeň","MDMA",23.2,18.69,2024,2023,24.1305510968432,"increase","CZ005","ČOV Plzeň","49.73945","13.37329",178677,"T.G.Masaryk Water Research Institute","N/A"
"CZ","Prague (2)","MDMA",54.74,,2024,,,"no previous data","CZ006","ÚČOV Praha","50.11584348","14.39671894",1212000,"South Bohemian Research Center of Aquaculture and Biodiversity of Hydrocenoses, University of South Bohemia in Ceske Budejovice","www.frov.jcu.cz/en/"
"CZ","Ústí nad Labem","MDMA",14.2,,2024,,,"no previous data","CZ009","ČOV Ústí - Neštěmice","50.667583","14.10462173",92572,"T.G.Masaryk Water Research Institute","N/A"
"DE","Chemnitz","MDMA",11.71,12.84,2024,2023,-8.80062305295949,"stable","DE008","Chemnitz","50.827845","12.92137",239402,"Clinical Pharmacology TU Dresden","N/A"
"DE","Dortmund","MDMA",37.07,77.18,2024,2023,-51.9694221300855,"decrease","DE009","Deusen","51.52","7.46",404300,"Clinical Pharmacology TU Dresden","N/A"
"DE","Dresden","MDMA",17.11,12.43,2024,2023,37.6508447304907,"increase","DE010","Dresden-Kaditz","51.05089","13.73832",671806,"Clinical Pharmacology TU Dresden","N/A"
"DE","Erfurt","MDMA",28.6,15.24,2024,2023,87.6640419947507,"increase","DE012","Erfurt","50.984768","11.02988",215323,"Clinical Pharmacology TU Dresden","N/A"
"DE","Hamburg N","MDMA",27.76,,2024,,,"no previous data","DE018","Nord","53.551085","9.993682",630000,"IFT Institut für Therapieforschung","N/A"
"DE","Hannover (2)","MDMA",26.07,,2024,,,"no previous data","DE020","Herrenhausen; Gummerwald","52.375892","9.73201",793400,"IFT Institut für Therapieforschung","www.ift.de/index.php"
"DE","Magdeburg","MDMA",21.33,20.04,2024,2023,6.43712574850299,"stable","DE023","Magdeburg","52.120533","11.627624",281150,"Clinical Pharmacology TU Dresden","N/A"
"DE","Munich G","MDMA",39.37,16.1,2024,2023,144.534161490683,"increase","DE026","Gut Grosslappen","48.14","11.58",1171100,"Clinical Pharmacology TU Dresden","N/A"
"DE","Nuremberg","MDMA",15.44,25.87,2024,2023,-40.3169694626981,"decrease","DE028","Nürnberg","49.452102","11.076665",451472,"Clinical Pharmacology TU Dresden","N/A"
"DE","Saarbrücken (2)","MDMA",28.35,26,2024,2023,9.03846153846154,"stable","DE030","Brebach; Burbach","49.240157","6.996933",203643,"IFT Institut für Therapieforschung","www.ift.de/index.php"
"DE","Stuttgart","MDMA",22.84,,2024,,,"no previous data","DE033","Stuttgart","48.775846","9.182932",609000,"IFT Institut für Therapieforschung","N/A"
"DK","Aalborg","MDMA",18.38,,2024,,,"no previous data","DK001","Aalborg renseanlæg vest","57.04855704","9.865213642",143141,"Department of Forensic Medicine, Section for Forensic Chemistry, Aarhus University, Denmark","N/A"
"DK","Aarhus","MDMA",12.33,17.7,2024,2023,-30.3389830508475,"decrease","DK002","Marselisborg","56.1631","10.20256",128978,"Department of Forensic Medicine, Section for Forensic Chemistry, Aarhus University, Denmark","N/A"
"DK","Copenhagen","MDMA",37,,2024,,,"no previous data","DK003","Lynetten","55.69","12.62",656470,"Department of Forensic Medicine, Section for Forensic Chemistry, Aarhus University, Denmark","N/A"
"DK","Esbjerg","MDMA",6.69,,2024,,,"no previous data","DK004","Esbjerg renseanlæg vest","55.48812791","8.430608708",62017,"Department of Forensic Medicine, Section for Forensic Chemistry, Aarhus University, Denmark","N/A"
"DK","Næstved","MDMA",7.12,,2024,,,"no previous data","DK005","Næstved centralrenseanlæg","55.2229935","11.74855352",69863,"Department of Forensic Medicine, Section for Forensic Chemistry, Aarhus University, Denmark","N/A"
"DK","Odense","MDMA",10.03,,2024,,,"no previous data","DK006","Ejby Mølle","55.40132682133402","10.3875142603132",134364,"Department of Forensic Medicine, Section for Forensic Chemistry, Aarhus University, Denmark","N/A"
"ES","Barcelona","MDMA",47.17,54.82,2024,2023,-13.9547610361182,"decrease","ES001","Baix Llobregat","41.43","1.97",1206813,"IDAEA-CSIC","N/A"
"ES","Castellon","MDMA",51.94,8.13,2024,2023,538.868388683887,"increase","ES002","EDAR Castellón","40.23","-0.12",182103,"IUPA","N/A"
"ES","Granada","MDMA",34.34,78.91,2024,2023,-56.482068178938,"decrease","ES003","Granada","37.17752","-3.59539",233821,"UGR","N/A"
"ES","Lleida","MDMA",42.47,11.2,2024,2023,279.196428571429,"increase","ES004","EDAR Lleida","41.617592","0.620015",149440,"IDAEA-CSIC","N/A"
"ES","Santiago","MDMA",16.84,16.75,2024,2023,0.53731343283582,"stable","ES007","Silvouta","42.88","-8.54",136500,"IAQBUS","N/A"
"ES","Tarragona","MDMA",32.14,,2024,,,"no previous data","ES008","Tarragona","41.11901451164164","1.24570728603803",150013,"URV","N/A"
"FI","Espoo","MDMA",26.91,18.14,2024,2023,48.3461962513782,"increase","FI001","Blominmäki","60.16","24.71",390000,"THL/Forensic Toxicology","N/A"
"FI","Helsinki","MDMA",35.19,31.39,2024,2023,12.1057661675693,"increase","FI002","Viikinmäki","60.23","24.99",9e+05,"THL/Forensic Toxicology","N/A"
"FI","Huittinen","MDMA",2.75,,2024,,,"no previous data","FI003","Huittinen","61.17655889","22.69824858",37000,"THL/Forensic Toxicology","N/A"
"FI","Hämeenlinna","MDMA",10.83,,2024,,,"no previous data","FI004","Paroinen","60.99601","24.46423",67000,"THL/Forensic Toxicology","N/A"
"FI","Joensuu","MDMA",29.42,,2024,,,"no previous data","FI005","Kuhasalo","62.58","29.73",84300,"THL/Forensic Toxicology","N/A"
"FI","Jyväskylä","MDMA",23.97,,2024,,,"no previous data","FI006","Nenäinniemi","62.21","25.77",155000,"THL/Forensic Toxicology","N/A"
"FI","Kajaani","MDMA",6.03,,2024,,,"no previous data","FI007","Peuraniemi","64.227","27.7285",29772,"THL/Forensic Toxicology","N/A"
"FI","Kemi","MDMA",10.3,,2024,,,"no previous data","FI008","Peurasaari","65.73609","24.56363",19368,"THL/Forensic Toxicology","N/A"
"FI","Kokkola","MDMA",8.86,,2024,,,"no previous data","FI009","Hopeakivenlahti","63.83848","23.13048",36000,"THL/Forensic Toxicology","N/A"
"FI","Kotka","MDMA",16.67,,2024,,,"no previous data","FI010","Mussalo","60.45","26.89",95000,"THL/Forensic Toxicology","N/A"
"FI","Kouvola","MDMA",10.83,,2024,,,"no previous data","FI011","Mäkikylä","60.8679","26.70405",70000,"THL/Forensic Toxicology","N/A"
"FI","Kuopio","MDMA",15.71,,2024,,,"no previous data","FI012","Lehtoniemi","62.96","27.01",96034,"THL/Forensic Toxicology","N/A"
"FI","Lahti","MDMA",16.1,,2024,,,"no previous data","FI013","Kariniemi","60.99","25.65",64000,"THL/Forensic Toxicology","N/A"
"FI","Lappeenranta","MDMA",12.06,,2024,,,"no previous data","FI014","Toikansuo","60.93","27.3",71000,"THL/Forensic Toxicology","N/A"
"FI","Mariehamn","MDMA",5.52,,2024,,,"no previous data","FI015","Lotsbroverket","60.09693","19.93482",20000,"THL/Forensic Toxicology","N/A"
"FI","Mikkeli","MDMA",5.38,,2024,,,"no previous data","FI016","Metsä-Sairila","61.68852","27.27217",48626,"THL/Forensic Toxicology","N/A"
"FI","Oulu","MDMA",25.74,,2024,,,"no previous data","FI017","Taskila","65.05","25.41",202600,"THL/Forensic Toxicology","N/A"
"FI","Pietarsaari","MDMA",1.64,,2024,,,"no previous data","FI018","Alheda","63.67486","22.70256",41100,"THL/Forensic Toxicology","N/A"
"FI","Pori","MDMA",16.28,,2024,,,"no previous data","FI019","Luotsinmäki","61.48519","21.79746",113000,"THL/Forensic Toxicology","N/A"
"FI","Porvoo","MDMA",18.5,,2024,,,"no previous data","FI020","Hermanninsaari","60.34094426","25.61000702",50100,"THL/Forensic Toxicology","N/A"
"FI","Rauma","MDMA",21.44,,2024,,,"no previous data","FI021","Maanpäänniemi","61.12724","21.51127",40000,"THL/Forensic Toxicology","N/A"
"FI","Rovaniemi","MDMA",21.25,,2024,,,"no previous data","FI022","Alakorkalo","66.5","25.72",55000,"THL/Forensic Toxicology","N/A"
"FI","Savonlinna","MDMA",3.87,,2024,,,"no previous data","FI024","Pihlajaniemi","61.86","28.85",24000,"THL/Forensic Toxicology","N/A"
"FI","Seinäjoki","MDMA",21.71,,2024,,,"no previous data","FI025","Seinäjoki","62.79446","22.82822",55000,"THL/Forensic Toxicology","N/A"
"FI","Tampere","MDMA",28.54,20.88,2024,2023,36.6858237547893,"increase","FI026","Viinikanlahti","61.49","23.77",2e+05,"THL/Forensic Toxicology","N/A"
"FI","Turku","MDMA",34.57,22.3,2024,2023,55.0224215246637,"increase","FI027","Kakolanmäki","60.44","22.24",3e+05,"THL/Forensic Toxicology","N/A"
"FI","Vaasa","MDMA",22.01,,2024,,,"no previous data","FI028","Patt","63.1","21.62",69252,"THL/Forensic Toxicology","N/A"
"FI","Vihti","MDMA",4.9,,2024,,,"no previous data","FI029","Nummela","60.41699","24.31965",17500,"THL/Forensic Toxicology","N/A"
"FR","Paris Seine Centre","MDMA",50.57,83.04,2024,2023,-39.1016377649326,"decrease","FR005","Seine Centre","48.95","2.27",2700000,"METIS","N/A"
"GR","Athens","MDMA",7.77,3.97,2024,2023,95.7178841309823,"increase","GR001","City of Athens WWTP","37.9928017","23.7658005",3507341,"Laboratory of Analytical Chemistry (LAC) of the Department of Chemistry of the National and Kapodistrian University of Athens (NKUA)","N/A"
"HR","Split","MDMA",35.49,,2024,,,"no previous data","HR001","Wastewater sampling site at Katalinića Brig, Split","43.51526542","16.44159294",110000,"Department for Water Safety and Supply","N/A"
"HR","Zagreb","MDMA",20.71,27.27,2024,2023,-24.0557389072241,"decrease","HR002","Central wastewater treatment plant of the city of Zagreb ","45.7929993","15.9463997",650000,"Laboratory for analytical chemistry and biogeochemistry of organic compounds","N/A"
"IE","Dublin","MDMA",41.72,,2024,,,"no previous data","IE001","Ringsend ","53.34874586","-6.277189185",1980000,"N/A","N/A"
"IT","Bologna","MDMA",12.92,,2024,,,"no previous data","IT001","IDAR Bologna","44.55171862","11.36449646",6e+05,"Mario Negri Institute","N/A"
"IT","Bozen","MDMA",7.68,5.61,2024,2023,36.8983957219251,"increase","IT002","Kläranlage Bozen","46.49672","11.358",280000,"Medical University Innsbruck","N/A"
"IT","Milan","MDMA",14.44,9.84,2024,2023,46.7479674796748,"increase","IT003","Nosedo","45.4337997","9.2213602",1148738,"Mario Negri Institute","N/A"
"IT","Rome","MDMA",5.55,,2024,,,"no previous data","IT004","Roma Sud","41.812778","12.4252602",1100000,"Mario Negri Institute","N/A"
"LT","Kaunas","MDMA",12.42,14.86,2024,2023,-16.4199192462988,"decrease","LT001","Kaunas","54.89687","23.89243",297143,"Toxicological Centre","N/A"
"LT","Klaipeda","MDMA",14.9,8.27,2024,2023,80.1692865779928,"increase","LT002","Klaipeda","55.78282","21.49279",305333,"Toxicological Centre","N/A"
"LT","Vilnius","MDMA",19.75,51.13,2024,2023,-61.3729708585957,"decrease","LT003","Vilniaus vandenys","54.687156","25.279651",576727,"Toxicological Centre","N/A"
"LU","Luxembourg","MDMA",22.21,,2024,,,"no previous data","LU002","Beggen","49.61164191","6.12649945",157873,"Laboratoire national de santé","N/A"
"LV","Riga","MDMA",16.19,28.64,2024,2023,-43.4706703910614,"decrease","LV001","Riga","56.94965","24.105186",607381,"Toxicological Centre","N/A"
"NL","Amsterdam","MDMA",282.51,194.56,2024,2023,45.2045641447368,"increase","NL001","RWZI Amsterdam-WEST","52.375","4.8666668",699648,"KWR Water Research Institute","N/A"
"NL","Groningen","MDMA",106.17,,2024,,,"no previous data","NL003","RWZI Garmerwolde","53.24730146","6.670277244",250722,"KWR Water Research Institute","N/A"
"NL","Rotterdam (2)","MDMA",111.9,236.71,2024,2023,-52.7269654851929,"decrease","NL007","RWZI Dokhaven; RWZI Kralinserveer","51.92288","4.47847",619563,"N/A","N/A"
"NL","Utrecht","MDMA",110.47,116.73,2024,2023,-5.36280304977298,"stable","NL010","RWZI Utrecht","52.0858002","5.1308398",273738,"KWR Water Research Institute","N/A"
"NL","Zwolle","MDMA",49.98,,2024,,,"no previous data","NL011","RWZI Zwolle","52.51015878","6.049675057",125418,"KWR Water Research Institute","N/A"
"NO","Bergen (2)","MDMA",36.65,,2024,,,"no previous data","NO001","Bergen ","60.39453688","5.289335039",117936,"N/A","N/A"
"NO","Oslo (2)","MDMA",37.79,,2024,,,"no previous data","NO007","Oslo","59.91124354","10.75077126",929199,"N/A","N/A"
"NO","Trondheim (2)","MDMA",21.17,,2024,,,"no previous data","NO009","Trondheim","-36.85091","174.75761",211876,"N/A","N/A"
"PL","Krakow P","MDMA",42.26,24.16,2024,2023,74.9172185430463,"increase","PL003","Krakow Plaszow","50.06","19.94",680000,"Mario Negri Institute","N/A"
"PT","Almada","MDMA",17.37,13.23,2024,2023,31.2925170068027,"increase","PT001","Mutela","38.675187","-9.154345",138685,"INMLCF","N/A"
"PT","Lisbon","MDMA",81.77,33.08,2024,2023,147.188633615478,"increase","PT002","Alcântara","38.7044907","-9.1754999",426964,"INMLCF","N/A"
"PT","Porto","MDMA",21.99,18.56,2024,2023,18.4806034482759,"increase","PT003","Porto","41.157944","-8.629105",150000,"IAQBUS","N/A"
"RO","Bucharest","MDMA",11.01,15.16,2024,2023,-27.3746701846966,"decrease","RO001","Glina","44.4275","26.10081",2142929,"Toxicological Centre","N/A"
"SE","Gävle","MDMA",16.14,12.27,2024,2023,31.5403422982885,"increase","SE002","Duvbacken ARV","60.674622","17.14183",88668,"RISE","N/A"
"SE","Karlstad","MDMA",6.55,,2024,,,"no previous data","SE003","N/A","59.40122537","13.5112195",72000,"RISE","N/A"
"SE","Stockholm (2)","MDMA",23.35,,2024,,,"no previous data","SE005","Bromma (BIN); Henriksdals reningsverk","59.329323","18.068581",760407,"N/A","N/A"
"SE","Trollhättan","MDMA",0,,2024,,,"no previous data","SE009","N/A","58.28333667","12.28669083",59073,"RISE","N/A"
"SE","Växjö","MDMA",0,7.08,2024,2023,-100,"decrease","SE012"," Sundets ARV","56.858257","14.761215",75410,"RISE","N/A"
"SI","Domžale-Kamnik","MDMA",15.23,6.21,2024,2023,145.24959742351,"increase","SI001","Domžale-Kamnik","46.13788","14.59384",82579,"Jožef Stefan Institute, Environmental department, Laboratory for organic analysis","N/A"
"SI","Koper","MDMA",18.97,7.07,2024,2023,168.316831683168,"increase","SI002","Central wastewater treatment plant Koper","45.548058","13.730188",52118,"Jožef Stefan Institute, Environmental department, Laboratory for organic analysis","N/A"
"SI","Kranj","MDMA",11.42,12.51,2024,2023,-8.71302957633893,"stable","SI003","Central wastewater treatment plant Kranj","46.242834","14.355542",53222,"Jožef Stefan Institute, Environmental department, Laboratory for organic analysis","N/A"
"SI","Ljubljana","MDMA",32.21,24.06,2024,2023,33.8736492103076,"increase","SI004","Central wastewater treatment plant Ljubljana","46.056947","14.505751",282687,"Jožef Stefan Institute, Environmental department, Laboratory for organic analysis","N/A"
"SI","Maribor","MDMA",17.84,17.56,2024,2023,1.59453302961276,"stable","SI005","Maribor","46.55734","15.64591",129000,"Jožef Stefan Institute, Environmental department, Laboratory for organic analysis","N/A"
"SI","Novo mesto","MDMA",1.13,3.86,2024,2023,-70.7253886010363,"decrease","SI006","Wastewater treatment plant Novo mesto","45.804211","15.16969",25433,"Jožef Stefan Institute, Environmental department, Laboratory for organic analysis","N/A"
"SI","Velenje","MDMA",1.95,5.11,2024,2023,-61.839530332681,"decrease","SI007","Central wastewater treatment plant Šaleške Doline (Šalek Valley)","46.362274","15.110658",33062,"Jožef Stefan Institute, Environmental department, Laboratory for organic analysis","N/A"
"SK","Bratislava C","MDMA",18.07,13.9,2024,2023,30,"increase","SK002","Central","48.14925","17.106991",450000,"University of South Bohemia in České Budejovice - Vodňany","N/A"
"SK","Piestany","MDMA",8.58,5.99,2024,2023,43.2387312186978,"increase","SK004","Piestany","48.5918007","17.8019009",35000,"University of South Bohemia in České Budejovice - Vodňany","N/A"
"TR","Ankara","MDMA",11.44,8.81,2024,2023,29.8524404086265,"increase","TR002","Tatlar","39.93436","32.88606",4735531,"Ankara- Lab139","N/A"
"TR","Istanbul (II-VII)","MDMA",14.02,23.31,2024,2023,-39.8541398541399,"decrease","TR004","ATAKÖY; BALTALİMANI; KADIKÖY; KÜÇÜKÇEKMECE; TUZLA; YENİKAPI","41.013","28.9748",16525000,"Forensic Toxicology Labs. Institute of Forensic Sciences and Legal Medicine, Istanbul University-Cerrahpasa","https://adlitip.istanbulc.edu.tr/tr/_"
"AT","Graz","amphetamine",49.64,45.39,2024,2023,9.36329588014981,"stable","AT001","ARA Graz","47.070713","15.439504",425000,"Medical University Innsbruck","N/A"
"AT","Hall-Wattens","amphetamine",9.19,6.97,2024,2023,31.8507890961263,"increase","AT002","Abwasserverband Hall in Tirol-Fritzens","47.29168","11.59284",76000,"Medical University Innsbruck","N/A"
"AT","Innsbruck","amphetamine",16.36,15.6,2024,2023,4.87179487179487,"stable","AT004","ARA Innsbruck","47.269212","11.404102",249000,"Medical University Innsbruck","N/A"
"AT","Kapfenberg","amphetamine",62.69,33.43,2024,2023,87.5261740951241,"increase","AT005","Kläranlage Kapfenberg","47.443562","15.2901",36000,"Medical University Innsbruck","N/A"
"AT","Klagenfurt","amphetamine",7.15,6.41,2024,2023,11.5444617784711,"increase","AT006","Wasserverband Wörthersee Ost","46.635700","14.311817",232000,"Medical University Innsbruck","N/A"
"AT","Knittelfeld","amphetamine",14.16,10.79,2024,2023,31.2326227988879,"increase","AT008","AWV Knittelfeld","47.215950","14.82719",37000,"Medical University Innsbruck","N/A"
"AT","Kufstein","amphetamine",15.91,20.67,2024,2023,-23.0285437832608,"decrease","AT010","Abwasserverband Kufstein","47.582958","12.17077",45000,"Medical University Innsbruck","N/A"
"AT","Purgstall","amphetamine",15.69,14.31,2024,2023,9.64360587002096,"stable","AT013","GAV Erlauftal","48.057812","15.13545",7600,"Medical University Innsbruck","N/A"
"AT","Region Millstättersee","amphetamine",6.19,2.02,2024,2023,206.435643564356,"increase","AT011","Wasserverband Millstaettersee","46.81924","13.52146",93000,"Medical University Innsbruck","N/A"
"AT","Ried im Innkreis","amphetamine",101.68,,2024,,,"no previous data","AT014","Reinhaltungsverband Ried im Innkreis","48.2254548","13.478626",28000,"Medical University Innsbruck","N/A"
"AT","Salzburg","amphetamine",24.3,17.58,2024,2023,38.2252559726963,"increase","AT015","ARA Siggerwiesen","47.811195","13.033229",415000,"Medical University Innsbruck","N/A"
"AT","Steyr","amphetamine",37.45,35.52,2024,2023,5.43355855855856,"stable","AT016","Reinhaltungsverband Steyr und Umgebung","48.050090","14.41827",82000,"Medical University Innsbruck","N/A"
"AT","Strass im Zillertal","amphetamine",11.12,7.99,2024,2023,39.1739674593241,"increase","AT017","AIZ Abwasserverband","47.395748","11.82211",130000,"Medical University Innsbruck","N/A"
"AT","Wasserverband Hofsteig","amphetamine",36,16.83,2024,2023,113.903743315508,"increase","AT003","ARA Hofsteig","47.4852","9.6762",105000,"Medical University Innsbruck","N/A"
"AT","Wien","amphetamine",42.3,39.66,2024,2023,6.65658093797277,"stable","AT018","Hauptkläranlage Wien","48.210033","16.363449",3166000,"Medical University Innsbruck","N/A"
"AT","Wiener Neustadt","amphetamine",26.28,26.65,2024,2023,-1.38836772983113,"stable","AT019","AWV Wr. Neustadt-Süd","47.802790","16.23318",140000,"Medical University Innsbruck","N/A"
"AT","Wildon","amphetamine",39.59,36.21,2024,2023,9.33443800055234,"stable","AT020","Abwasserverband Grazerfeld","46.885708","15.518532",96000,"Medical University Innsbruck","N/A"
"BE","Antwerp Zuid","amphetamine",376.09,391.42,2024,2023,-3.91650912063769,"stable","BE002","Antwerpen-Zuid","51.2","4.39",143240,"Toxicological Centre","N/A"
"BE","Brussels","amphetamine",85.56,50.82,2024,2023,68.3589138134593,"increase","BE005","Brussel-Noord","50.86","4.36",1030306,"Toxicological Centre","N/A"
"CY","Agia Napa","amphetamine",8.01,3.95,2024,2023,102.784810126582,"increase","CY001","Sewage treatment plant of Agia Napa-Paralimni","34.99075444704176","33.9999814169353",55382,"Nireas","N/A"
"CY","Larnaca","amphetamine",6.5,4.26,2024,2023,52.5821596244132,"increase","CY002","Sewage Bioard of Larnaca","34.915164353041064","33.6361988334665",86577,"Nireas","N/A"
"CY","Limassol","amphetamine",6.66,17.2,2024,2023,-61.2790697674419,"decrease","CY003","Sewerage Board of Limassol-Amathus (SBLA)","34.69","33.02",213812,"Nireas","N/A"
"CY","Nicosia (2)","amphetamine",5.77,6.28,2024,2023,-8.12101910828027,"stable","CY005","Sewage treatment plant of Pano Deftera (Anthoupoli)-Sewerage Board of Nicosia; Sewage treatment plant of Vathia Gonia-Sewerage Board of Nicosia","35.17","33.4",111510,"N/A","N/A"
"CY","Paphos","amphetamine",9.42,21.75,2024,2023,-56.6896551724138,"decrease","CY007","Sewage Borad of Pafos","34.775853627551825","32.4215949998929",107501,"Nireas","N/A"
"CZ","Brno","amphetamine",26.51,,2024,,,"no previous data","CZ001","Waterworks and sewage of city Brno ","49.19506","16.606837",445000,"FFPW USB","N/A"
"CZ","České Budějovice","amphetamine",25.38,,2024,,,"no previous data","CZ002","UCOV CB","48.96","14.46",110000,"FFPW USB","N/A"
"CZ","Karlovy Vary","amphetamine",32.85,50.44,2024,2023,-34.8731165741475,"decrease","CZ003","ČOV Karloy Vary","50.23204","12.87099",67544,"T.G.Masaryk Water Research Institute","N/A"
"CZ","Ostrava","amphetamine",56.62,59.32,2024,2023,-4.5515846257586,"stable","CZ004","ÚČOV Ostrava","49.833864","18.281034",250000,"T.G.Masaryk Water Research Institute","N/A"
"CZ","Plzeň","amphetamine",57.48,46.01,2024,2023,24.929363181917,"increase","CZ005","ČOV Plzeň","49.73945","13.37329",178677,"T.G.Masaryk Water Research Institute","N/A"
"CZ","Prague (2)","amphetamine",53.78,,2024,,,"no previous data","CZ006","ÚČOV Praha","50.11584348","14.39671894",1212000,"South Bohemian Research Center of Aquaculture and Biodiversity of Hydrocenoses, University of South Bohemia in Ceske Budejovice","www.frov.jcu.cz/en/"
"CZ","Ústí nad Labem","amphetamine",80.93,,2024,,,"no previous data","CZ009","ČOV Ústí - Neštěmice","50.667583","14.10462173",92572,"T.G.Masaryk Water Research Institute","N/A"
"DE","Chemnitz","amphetamine",27.43,26.68,2024,2023,2.81109445277361,"stable","DE008","Chemnitz","50.827845","12.92137",239402,"Clinical Pharmacology TU Dresden","N/A"
"DE","Dortmund","amphetamine",262.2,234.66,2024,2023,11.7361288672974,"increase","DE009","Deusen","51.52","7.46",404300,"Clinical Pharmacology TU Dresden","N/A"
"DE","Dresden","amphetamine",50.58,46.38,2024,2023,9.05562742561448,"stable","DE010","Dresden-Kaditz","51.05089","13.73832",671806,"Clinical Pharmacology TU Dresden","N/A"
"DE","Erfurt","amphetamine",64.62,62.49,2024,2023,3.40854536725877,"stable","DE012","Erfurt","50.984768","11.02988",215323,"Clinical Pharmacology TU Dresden","N/A"
"DE","Hamburg N","amphetamine",61.64,,2024,,,"no previous data","DE018","Nord","53.551085","9.993682",630000,"IFT Institut für Therapieforschung","N/A"
"DE","Hannover (2)","amphetamine",97.34,,2024,,,"no previous data","DE020","Herrenhausen; Gummerwald","52.375892","9.73201",793400,"IFT Institut für Therapieforschung","www.ift.de/index.php"
"DE","Magdeburg","amphetamine",131.37,122.97,2024,2023,6.83093437423762,"stable","DE023","Magdeburg","52.120533","11.627624",281150,"Clinical Pharmacology TU Dresden","N/A"
"DE","Munich G","amphetamine",37.87,30.93,2024,2023,22.437762689945,"increase","DE026","Gut Grosslappen","48.14","11.58",1171100,"Clinical Pharmacology TU Dresden","N/A"
"DE","Nuremberg","amphetamine",53.19,46.96,2024,2023,13.2666098807496,"increase","DE028","Nürnberg","49.452102","11.076665",451472,"Clinical Pharmacology TU Dresden","N/A"
"DE","Saarbrücken (2)","amphetamine",498.56,346.86,2024,2023,43.7352245862884,"increase","DE030","Brebach; Burbach","49.240157","6.996933",203643,"IFT Institut für Therapieforschung","www.ift.de/index.php"
"DE","Stuttgart","amphetamine",111.13,,2024,,,"no previous data","DE033","Stuttgart","48.775846","9.182932",609000,"IFT Institut für Therapieforschung","N/A"
"DK","Aalborg","amphetamine",112.76,,2024,,,"no previous data","DK001","Aalborg renseanlæg vest","57.04855704","9.865213642",143141,"Department of Forensic Medicine, Section for Forensic Chemistry, Aarhus University, Denmark","N/A"
"DK","Aarhus","amphetamine",74.1,83.32,2024,2023,-11.0657705232837,"decrease","DK002","Marselisborg","56.1631","10.20256",128978,"Department of Forensic Medicine, Section for Forensic Chemistry, Aarhus University, Denmark","N/A"
"DK","Copenhagen","amphetamine",95.78,,2024,,,"no previous data","DK003","Lynetten","55.69","12.62",656470,"Department of Forensic Medicine, Section for Forensic Chemistry, Aarhus University, Denmark","N/A"
"DK","Esbjerg","amphetamine",199.86,,2024,,,"no previous data","DK004","Esbjerg renseanlæg vest","55.48812791","8.430608708",62017,"Department of Forensic Medicine, Section for Forensic Chemistry, Aarhus University, Denmark","N/A"
"DK","Næstved","amphetamine",179.24,,2024,,,"no previous data","DK005","Næstved centralrenseanlæg","55.2229935","11.74855352",69863,"Department of Forensic Medicine, Section for Forensic Chemistry, Aarhus University, Denmark","N/A"
"DK","Odense","amphetamine",121.81,,2024,,,"no previous data","DK006","Ejby Mølle","55.40132682133402","10.3875142603132",134364,"Department of Forensic Medicine, Section for Forensic Chemistry, Aarhus University, Denmark","N/A"
"ES","Barcelona","amphetamine",41.91,36.63,2024,2023,14.4144144144144,"increase","ES001","Baix Llobregat","41.43","1.97",1206813,"IDAEA-CSIC","N/A"
"ES","Granada","amphetamine",21.05,51.81,2024,2023,-59.3707778421154,"decrease","ES003","Granada","37.17752","-3.59539",233821,"UGR","N/A"
"ES","Lleida","amphetamine",42.25,44.23,2024,2023,-4.47659959303639,"stable","ES004","EDAR Lleida","41.617592","0.620015",149440,"IDAEA-CSIC","N/A"
"ES","Santiago","amphetamine",10.93,0,2024,2023,Inf,"increase","ES007","Silvouta","42.88","-8.54",136500,"IAQBUS","N/A"
"ES","Tarragona","amphetamine",54.73,51.51,2024,2023,6.25121335662978,"stable","ES008","Tarragona","41.11901451164164","1.24570728603803",150013,"URV","N/A"
"FI","Espoo","amphetamine",119.13,100.34,2024,2023,18.7263304763803,"increase","FI001","Blominmäki","60.16","24.71",390000,"THL/Forensic Toxicology","N/A"
"FI","Helsinki","amphetamine",186.03,184.74,2024,2023,0.698278661903211,"stable","FI002","Viikinmäki","60.23","24.99",9e+05,"THL/Forensic Toxicology","N/A"
"FI","Huittinen","amphetamine",25.51,,2024,,,"no previous data","FI003","Huittinen","61.17655889","22.69824858",37000,"THL/Forensic Toxicology","N/A"
"FI","Hämeenlinna","amphetamine",76.96,,2024,,,"no previous data","FI004","Paroinen","60.99601","24.46423",67000,"THL/Forensic Toxicology","N/A"
"FI","Joensuu","amphetamine",101.27,,2024,,,"no previous data","FI005","Kuhasalo","62.58","29.73",84300,"THL/Forensic Toxicology","N/A"
"FI","Jyväskylä","amphetamine",113.02,,2024,,,"no previous data","FI006","Nenäinniemi","62.21","25.77",155000,"THL/Forensic Toxicology","N/A"
"FI","Kajaani","amphetamine",159.91,,2024,,,"no previous data","FI007","Peuraniemi","64.227","27.7285",29772,"THL/Forensic Toxicology","N/A"
"FI","Kemi","amphetamine",84.98,,2024,,,"no previous data","FI008","Peurasaari","65.73609","24.56363",19368,"THL/Forensic Toxicology","N/A"
"FI","Kokkola","amphetamine",88.64,,2024,,,"no previous data","FI009","Hopeakivenlahti","63.83848","23.13048",36000,"THL/Forensic Toxicology","N/A"
"FI","Kotka","amphetamine",125.95,,2024,,,"no previous data","FI010","Mussalo","60.45","26.89",95000,"THL/Forensic Toxicology","N/A"
"FI","Kouvola","amphetamine",146.96,,2024,,,"no previous data","FI011","Mäkikylä","60.8679","26.70405",70000,"THL/Forensic Toxicology","N/A"
"FI","Kuopio","amphetamine",205.7,,2024,,,"no previous data","FI012","Lehtoniemi","62.96","27.01",96034,"THL/Forensic Toxicology","N/A"
"FI","Lahti","amphetamine",216.24,,2024,,,"no previous data","FI013","Kariniemi","60.99","25.65",64000,"THL/Forensic Toxicology","N/A"
"FI","Lappeenranta","amphetamine",174.2,,2024,,,"no previous data","FI014","Toikansuo","60.93","27.3",71000,"THL/Forensic Toxicology","N/A"
"FI","Mariehamn","amphetamine",86.8,,2024,,,"no previous data","FI015","Lotsbroverket","60.09693","19.93482",20000,"THL/Forensic Toxicology","N/A"
"FI","Mikkeli","amphetamine",91.4,,2024,,,"no previous data","FI016","Metsä-Sairila","61.68852","27.27217",48626,"THL/Forensic Toxicology","N/A"
"FI","Oulu","amphetamine",140.06,,2024,,,"no previous data","FI017","Taskila","65.05","25.41",202600,"THL/Forensic Toxicology","N/A"
"FI","Pietarsaari","amphetamine",33.09,,2024,,,"no previous data","FI018","Alheda","63.67486","22.70256",41100,"THL/Forensic Toxicology","N/A"
"FI","Pori","amphetamine",61.32,,2024,,,"no previous data","FI019","Luotsinmäki","61.48519","21.79746",113000,"THL/Forensic Toxicology","N/A"
"FI","Porvoo","amphetamine",128.15,,2024,,,"no previous data","FI020","Hermanninsaari","60.34094426","25.61000702",50100,"THL/Forensic Toxicology","N/A"
"FI","Rauma","amphetamine",83.84,,2024,,,"no previous data","FI021","Maanpäänniemi","61.12724","21.51127",40000,"THL/Forensic Toxicology","N/A"
"FI","Rovaniemi","amphetamine",188.72,,2024,,,"no previous data","FI022","Alakorkalo","66.5","25.72",55000,"THL/Forensic Toxicology","N/A"
"FI","Savonlinna","amphetamine",78.4,,2024,,,"no previous data","FI024","Pihlajaniemi","61.86","28.85",24000,"THL/Forensic Toxicology","N/A"
"FI","Seinäjoki","amphetamine",53.08,,2024,,,"no previous data","FI025","Seinäjoki","62.79446","22.82822",55000,"THL/Forensic Toxicology","N/A"
"FI","Tampere","amphetamine",159.96,137.59,2024,2023,16.2584490151901,"increase","FI026","Viinikanlahti","61.49","23.77",2e+05,"THL/Forensic Toxicology","N/A"
"FI","Turku","amphetamine",167.53,117.26,2024,2023,42.8705440900563,"increase","FI027","Kakolanmäki","60.44","22.24",3e+05,"THL/Forensic Toxicology","N/A"
"FI","Vaasa","amphetamine",73.9,,2024,,,"no previous data","FI028","Patt","63.1","21.62",69252,"THL/Forensic Toxicology","N/A"
"FI","Vihti","amphetamine",65.47,,2024,,,"no previous data","FI029","Nummela","60.41699","24.31965",17500,"THL/Forensic Toxicology","N/A"
"FR","Paris Seine Centre","amphetamine",5.85,0,2024,2023,Inf,"increase","FR005","Seine Centre","48.95","2.27",2700000,"METIS","N/A"
"GR","Athens","amphetamine",12.98,,2024,,,"no previous data","GR001","City of Athens WWTP","37.9928017","23.7658005",3507341,"Laboratory of Analytical Chemistry (LAC) of the Department of Chemistry of the National and Kapodistrian University of Athens (NKUA)","N/A"
"HR","Split","amphetamine",79.93,,2024,,,"no previous data","HR001","Wastewater sampling site at Katalinića Brig, Split","43.51526542","16.44159294",110000,"Department for Water Safety and Supply","N/A"
"HR","Zagreb","amphetamine",82.75,98.29,2024,2023,-15.8103571065215,"decrease","HR002","Central wastewater treatment plant of the city of Zagreb ","45.7929993","15.9463997",650000,"Laboratory for analytical chemistry and biogeochemistry of organic compounds","N/A"
"HU","Budapest","amphetamine",203.79,,2024,,,"no previous data","HU001","N/A","47.50155794","19.04200692",912698,"N/A","N/A"
"IE","Dublin","amphetamine",23.61,,2024,,,"no previous data","IE001","Ringsend ","53.34874586","-6.277189185",1980000,"N/A","N/A"
"IT","Bologna","amphetamine",2.9,,2024,,,"no previous data","IT001","IDAR Bologna","44.55171862","11.36449646",6e+05,"Mario Negri Institute","N/A"
"IT","Bozen","amphetamine",2.75,2.56,2024,2023,7.421875,"stable","IT002","Kläranlage Bozen","46.49672","11.358",280000,"Medical University Innsbruck","N/A"
"IT","Milan","amphetamine",4.05,6.6,2024,2023,-38.6363636363636,"decrease","IT003","Nosedo","45.4337997","9.2213602",1148738,"Mario Negri Institute","N/A"
"IT","Rome","amphetamine",0,,2024,,,"no previous data","IT004","Roma Sud","41.812778","12.4252602",1100000,"Mario Negri Institute","N/A"
"LT","Klaipeda","amphetamine",21.86,19.12,2024,2023,14.3305439330544,"increase","LT002","Klaipeda","55.78282","21.49279",305333,"Toxicological Centre","N/A"
"LT","Vilnius","amphetamine",57.16,66.07,2024,2023,-13.485696988043,"decrease","LT003","Vilniaus vandenys","54.687156","25.279651",576727,"Toxicological Centre","N/A"
"LU","Luxembourg","amphetamine",8.05,,2024,,,"no previous data","LU002","Beggen","49.61164191","6.12649945",157873,"Laboratoire national de santé","N/A"
"LV","Riga","amphetamine",139.03,160.07,2024,2023,-13.1442493908915,"decrease","LV001","Riga","56.94965","24.105186",607381,"Toxicological Centre","N/A"
"NL","Amsterdam","amphetamine",172.25,122.02,2024,2023,41.1653827241436,"increase","NL001","RWZI Amsterdam-WEST","52.375","4.8666668",699648,"KWR Water Research Institute","N/A"
"NL","Eindhoven","amphetamine",311.26,,2024,,,"no previous data","NL002","RWZI Eindhoven","51.4421082","5.4800701",468599,"KWR Water Research Institute","N/A"
"NL","Groningen","amphetamine",247.35,,2024,,,"no previous data","NL003","RWZI Garmerwolde","53.24730146","6.670277244",250722,"KWR Water Research Institute","N/A"
"NL","Rotterdam (2)","amphetamine",173.2,237.16,2024,2023,-26.9691347613426,"decrease","NL007","RWZI Dokhaven; RWZI Kralinserveer","51.92288","4.47847",619563,"N/A","N/A"
"NL","Utrecht","amphetamine",304.26,,2024,,,"no previous data","NL010","RWZI Utrecht","52.0858002","5.1308398",273738,"KWR Water Research Institute","N/A"
"NL","Zwolle","amphetamine",272.17,,2024,,,"no previous data","NL011","RWZI Zwolle","52.51015878","6.049675057",125418,"KWR Water Research Institute","N/A"
"NO","Bergen (2)","amphetamine",430.06,,2024,,,"no previous data","NO001","Bergen ","60.39453688","5.289335039",117936,"N/A","N/A"
"NO","Oslo (2)","amphetamine",296.7,,2024,,,"no previous data","NO007","Oslo","59.91124354","10.75077126",929199,"N/A","N/A"
"NO","Trondheim (2)","amphetamine",394.43,,2024,,,"no previous data","NO009","Trondheim","-36.85091","174.75761",211876,"N/A","N/A"
"PL","Krakow P","amphetamine",79.72,66.89,2024,2023,19.1807445059052,"increase","PL003","Krakow Plaszow","50.06","19.94",680000,"Mario Negri Institute","N/A"
"PT","Almada","amphetamine",5.28,1.09,2024,2023,384.403669724771,"increase","PT001","Mutela","38.675187","-9.154345",138685,"INMLCF","N/A"
"PT","Lisbon","amphetamine",18.36,4.9,2024,2023,274.69387755102,"increase","PT002","Alcântara","38.7044907","-9.1754999",426964,"INMLCF","N/A"
"PT","Porto","amphetamine",10.97,0,2024,2023,Inf,"increase","PT003","Porto","41.157944","-8.629105",150000,"IAQBUS","N/A"
"RO","Bucharest","amphetamine",4.97,3.73,2024,2023,33.2439678284182,"increase","RO001","Glina","44.4275","26.10081",2142929,"Toxicological Centre","N/A"
"SE","Gävle","amphetamine",518.28,557.12,2024,2023,-6.97156806433085,"stable","SE002","Duvbacken ARV","60.674622","17.14183",88668,"RISE","N/A"
"SE","Karlstad","amphetamine",366.66,,2024,,,"no previous data","SE003","N/A","59.40122537","13.5112195",72000,"RISE","N/A"
"SE","Stockholm (2)","amphetamine",362.4,,2024,,,"no previous data","SE005","Bromma (BIN); Henriksdals reningsverk","59.329323","18.068581",760407,"N/A","N/A"
"SE","Trollhättan","amphetamine",279.39,,2024,,,"no previous data","SE009","N/A","58.28333667","12.28669083",59073,"RISE","N/A"
"SE","Växjö","amphetamine",120.1,143.31,2024,2023,-16.1956597585654,"decrease","SE012"," Sundets ARV","56.858257","14.761215",75410,"RISE","N/A"
"SI","Domžale-Kamnik","amphetamine",2.83,0,2024,2023,Inf,"increase","SI001","Domžale-Kamnik","46.13788","14.59384",82579,"Jožef Stefan Institute, Environmental department, Laboratory for organic analysis","N/A"
"SI","Koper","amphetamine",13.68,0,2024,2023,Inf,"increase","SI002","Central wastewater treatment plant Koper","45.548058","13.730188",52118,"Jožef Stefan Institute, Environmental department, Laboratory for organic analysis","N/A"
"SI","Kranj","amphetamine",20.6,0,2024,2023,Inf,"increase","SI003","Central wastewater treatment plant Kranj","46.242834","14.355542",53222,"Jožef Stefan Institute, Environmental department, Laboratory for organic analysis","N/A"
"SI","Ljubljana","amphetamine",25.51,16.76,2024,2023,52.2076372315036,"increase","SI004","Central wastewater treatment plant Ljubljana","46.056947","14.505751",282687,"Jožef Stefan Institute, Environmental department, Laboratory for organic analysis","N/A"
"SI","Maribor","amphetamine",32.51,30.25,2024,2023,7.47107438016528,"stable","SI005","Maribor","46.55734","15.64591",129000,"Jožef Stefan Institute, Environmental department, Laboratory for organic analysis","N/A"
"SI","Novo mesto","amphetamine",9.82,4.03,2024,2023,143.672456575682,"increase","SI006","Wastewater treatment plant Novo mesto","45.804211","15.16969",25433,"Jožef Stefan Institute, Environmental department, Laboratory for organic analysis","N/A"
"SI","Velenje","amphetamine",58.28,135.08,2024,2023,-56.8551969203435,"decrease","SI007","Central wastewater treatment plant Šaleške Doline (Šalek Valley)","46.362274","15.110658",33062,"Jožef Stefan Institute, Environmental department, Laboratory for organic analysis","N/A"
"SK","Bratislava C","amphetamine",12.47,,2024,,,"no previous data","SK002","Central","48.14925","17.106991",450000,"University of South Bohemia in České Budejovice - Vodňany","N/A"
"SK","Piestany","amphetamine",7.62,,2024,,,"no previous data","SK004","Piestany","48.5918007","17.8019009",35000,"University of South Bohemia in České Budejovice - Vodňany","N/A"
"TR","Ankara","amphetamine",6.73,8.69,2024,2023,-22.5546605293441,"decrease","TR002","Tatlar","39.93436","32.88606",4735531,"Ankara- Lab139","N/A"
"TR","Istanbul (II-VII)","amphetamine",5.9,,2024,,,"no previous data","TR004","ATAKÖY; BALTALİMANI; KADIKÖY; KÜÇÜKÇEKMECE; TUZLA; YENİKAPI","41.013","28.9748",16525000,"Forensic Toxicology Labs. Institute of Forensic Sciences and Legal Medicine, Istanbul University-Cerrahpasa","https://adlitip.istanbulc.edu.tr/tr/_"
"AT","Graz","cannabis",66.17,64.2,2024,2023,3.06853582554517,"stable","AT001","ARA Graz","47.070713","15.439504",425000,"Medical University Innsbruck","N/A"
"AT","Hall-Wattens","cannabis",49.73,49.2,2024,2023,1.07723577235771,"stable","AT002","Abwasserverband Hall in Tirol-Fritzens","47.29168","11.59284",76000,"Medical University Innsbruck","N/A"
"AT","Innsbruck","cannabis",79.05,84.29,2024,2023,-6.21663305255666,"stable","AT004","ARA Innsbruck","47.269212","11.404102",249000,"Medical University Innsbruck","N/A"
"AT","Kapfenberg","cannabis",53.46,67.42,2024,2023,-20.706021951943,"decrease","AT005","Kläranlage Kapfenberg","47.443562","15.2901",36000,"Medical University Innsbruck","N/A"
"AT","Klagenfurt","cannabis",42.84,41.55,2024,2023,3.10469314079424,"stable","AT006","Wasserverband Wörthersee Ost","46.635700","14.311817",232000,"Medical University Innsbruck","N/A"
"AT","Knittelfeld","cannabis",39,56.66,2024,2023,-31.1683727497353,"decrease","AT008","AWV Knittelfeld","47.215950","14.82719",37000,"Medical University Innsbruck","N/A"
"AT","Kufstein","cannabis",74.09,90.77,2024,2023,-18.3761154566487,"decrease","AT010","Abwasserverband Kufstein","47.582958","12.17077",45000,"Medical University Innsbruck","N/A"
"AT","Purgstall","cannabis",38.52,42.96,2024,2023,-10.3351955307263,"decrease","AT013","GAV Erlauftal","48.057812","15.13545",7600,"Medical University Innsbruck","N/A"
"AT","Region Millstättersee","cannabis",25.8,49.5,2024,2023,-47.8787878787879,"decrease","AT011","Wasserverband Millstaettersee","46.81924","13.52146",93000,"Medical University Innsbruck","N/A"
"AT","Ried im Innkreis","cannabis",58.15,,2024,,,"no previous data","AT014","Reinhaltungsverband Ried im Innkreis","48.2254548","13.478626",28000,"Medical University Innsbruck","N/A"
"AT","Salzburg","cannabis",50.76,55.15,2024,2023,-7.96010879419764,"stable","AT015","ARA Siggerwiesen","47.811195","13.033229",415000,"Medical University Innsbruck","N/A"
"AT","Steyr","cannabis",61.54,86.59,2024,2023,-28.9294375793972,"decrease","AT016","Reinhaltungsverband Steyr und Umgebung","48.050090","14.41827",82000,"Medical University Innsbruck","N/A"
"AT","Strass im Zillertal","cannabis",31.97,35.81,2024,2023,-10.7232616587545,"decrease","AT017","AIZ Abwasserverband","47.395748","11.82211",130000,"Medical University Innsbruck","N/A"
"AT","Wasserverband Hofsteig","cannabis",55.86,49.14,2024,2023,13.6752136752137,"increase","AT003","ARA Hofsteig","47.4852","9.6762",105000,"Medical University Innsbruck","N/A"
"AT","Wien","cannabis",87.34,80.09,2024,2023,9.05231614433762,"stable","AT018","Hauptkläranlage Wien","48.210033","16.363449",3166000,"Medical University Innsbruck","N/A"
"AT","Wiener Neustadt","cannabis",55.94,60.51,2024,2023,-7.55247066600562,"stable","AT019","AWV Wr. Neustadt-Süd","47.802790","16.23318",140000,"Medical University Innsbruck","N/A"
"AT","Wildon","cannabis",31.32,45.96,2024,2023,-31.8537859007833,"decrease","AT020","Abwasserverband Grazerfeld","46.885708","15.518532",96000,"Medical University Innsbruck","N/A"
"CZ","Brno","cannabis",72.31,45.5,2024,2023,58.9230769230769,"increase","CZ001","Waterworks and sewage of city Brno ","49.19506","16.606837",445000,"FFPW USB","N/A"
"CZ","České Budějovice","cannabis",118.02,73.5,2024,2023,60.5714285714286,"increase","CZ002","UCOV CB","48.96","14.46",110000,"FFPW USB","N/A"
"CZ","Karlovy Vary","cannabis",71.97,109.13,2024,2023,-34.0511316778154,"decrease","CZ003","ČOV Karloy Vary","50.23204","12.87099",67544,"T.G.Masaryk Water Research Institute","N/A"
"CZ","Ostrava","cannabis",61.53,54.13,2024,2023,13.6707925364862,"increase","CZ004","ÚČOV Ostrava","49.833864","18.281034",250000,"T.G.Masaryk Water Research Institute","N/A"
"CZ","Plzeň","cannabis",105.41,114.72,2024,2023,-8.11541143654114,"stable","CZ005","ČOV Plzeň","49.73945","13.37329",178677,"T.G.Masaryk Water Research Institute","N/A"
"CZ","Prague (2)","cannabis",80.35,,2024,,,"no previous data","CZ006","ÚČOV Praha","50.11584348","14.39671894",1212000,"South Bohemian Research Center of Aquaculture and Biodiversity of Hydrocenoses, University of South Bohemia in Ceske Budejovice","www.frov.jcu.cz/en/"
"CZ","Ústí nad Labem","cannabis",47.72,,2024,,,"no previous data","CZ009","ČOV Ústí - Neštěmice","50.667583","14.10462173",92572,"T.G.Masaryk Water Research Institute","N/A"
"DK","Aalborg","cannabis",90.62,,2024,,,"no previous data","DK001","Aalborg renseanlæg vest","57.04855704","9.865213642",143141,"Department of Forensic Medicine, Section for Forensic Chemistry, Aarhus University, Denmark","N/A"
"DK","Aarhus","cannabis",65.53,,2024,,,"no previous data","DK002","Marselisborg","56.1631","10.20256",128978,"Department of Forensic Medicine, Section for Forensic Chemistry, Aarhus University, Denmark","N/A"
"DK","Copenhagen","cannabis",123.35,,2024,,,"no previous data","DK003","Lynetten","55.69","12.62",656470,"Department of Forensic Medicine, Section for Forensic Chemistry, Aarhus University, Denmark","N/A"
"DK","Esbjerg","cannabis",111.19,,2024,,,"no previous data","DK004","Esbjerg renseanlæg vest","55.48812791","8.430608708",62017,"Department of Forensic Medicine, Section for Forensic Chemistry, Aarhus University, Denmark","N/A"
"DK","Næstved","cannabis",93.55,,2024,,,"no previous data","DK005","Næstved centralrenseanlæg","55.2229935","11.74855352",69863,"Department of Forensic Medicine, Section for Forensic Chemistry, Aarhus University, Denmark","N/A"
"DK","Odense","cannabis",78.41,,2024,,,"no previous data","DK006","Ejby Mølle","55.40132682133402","10.3875142603132",134364,"Department of Forensic Medicine, Section for Forensic Chemistry, Aarhus University, Denmark","N/A"
"ES","Barcelona","cannabis",220.68,220.63,2024,2023,0.022662375923497,"stable","ES001","Baix Llobregat","41.43","1.97",1206813,"IDAEA-CSIC","N/A"
"ES","Castellon","cannabis",65.04,75.27,2024,2023,-13.5910721402949,"decrease","ES002","EDAR Castellón","40.23","-0.12",182103,"IUPA","N/A"
"ES","Lleida","cannabis",121.31,172.82,2024,2023,-29.8055780580951,"decrease","ES004","EDAR Lleida","41.617592","0.620015",149440,"IDAEA-CSIC","N/A"
"ES","Santiago","cannabis",54.32,71.9,2024,2023,-24.4506258692629,"decrease","ES007","Silvouta","42.88","-8.54",136500,"IAQBUS","N/A"
"ES","Tarragona","cannabis",228.9,192.64,2024,2023,18.8226744186047,"increase","ES008","Tarragona","41.11901451164164","1.24570728603803",150013,"URV","N/A"
"FR","Paris Seine Centre","cannabis",53.88,119.1,2024,2023,-54.7607052896726,"decrease","FR005","Seine Centre","48.95","2.27",2700000,"METIS","N/A"
"GR","Athens","cannabis",36.9,,2024,,,"no previous data","GR001","City of Athens WWTP","37.9928017","23.7658005",3507341,"Laboratory of Analytical Chemistry (LAC) of the Department of Chemistry of the National and Kapodistrian University of Athens (NKUA)","N/A"
"HR","Split","cannabis",4.93,,2024,,,"no previous data","HR001","Wastewater sampling site at Katalinića Brig, Split","43.51526542","16.44159294",110000,"Department for Water Safety and Supply","N/A"
"HR","Zagreb","cannabis",88.8,85.68,2024,2023,3.64145658263304,"stable","HR002","Central wastewater treatment plant of the city of Zagreb ","45.7929993","15.9463997",650000,"Laboratory for analytical chemistry and biogeochemistry of organic compounds","N/A"
"HU","Budapest","cannabis",56.78,,2024,,,"no previous data","HU001","N/A","47.50155794","19.04200692",912698,"N/A","N/A"
"IE","Dublin","cannabis",98.1,,2024,,,"no previous data","IE001","Ringsend ","53.34874586","-6.277189185",1980000,"N/A","N/A"
"IT","Bologna","cannabis",82.04,,2024,,,"no previous data","IT001","IDAR Bologna","44.55171862","11.36449646",6e+05,"Mario Negri Institute","N/A"
"IT","Bozen","cannabis",52.72,57.71,2024,2023,-8.64668168428349,"stable","IT002","Kläranlage Bozen","46.49672","11.358",280000,"Medical University Innsbruck","N/A"
"IT","Milan","cannabis",52.28,54.22,2024,2023,-3.57801549243821,"stable","IT003","Nosedo","45.4337997","9.2213602",1148738,"Mario Negri Institute","N/A"
"IT","Rome","cannabis",78.77,,2024,,,"no previous data","IT004","Roma Sud","41.812778","12.4252602",1100000,"Mario Negri Institute","N/A"
"LU","Luxembourg","cannabis",140.4,,2024,,,"no previous data","LU002","Beggen","49.61164191","6.12649945",157873,"Laboratoire national de santé","N/A"
"NL","Amsterdam","cannabis",319.46,195.74,2024,2023,63.2062940635537,"increase","NL001","RWZI Amsterdam-WEST","52.375","4.8666668",699648,"KWR Water Research Institute","N/A"
"NL","Eindhoven","cannabis",124.64,147.64,2024,2023,-15.5784340287185,"decrease","NL002","RWZI Eindhoven","51.4421082","5.4800701",468599,"KWR Water Research Institute","N/A"
"NL","Groningen","cannabis",258.08,,2024,,,"no previous data","NL003","RWZI Garmerwolde","53.24730146","6.670277244",250722,"KWR Water Research Institute","N/A"
"NL","Rotterdam (2)","cannabis",147.99,225.36,2024,2023,-34.3317358892439,"decrease","NL007","RWZI Dokhaven; RWZI Kralinserveer","51.92288","4.47847",619563,"N/A","N/A"
"NL","Utrecht","cannabis",122.44,146.61,2024,2023,-16.4859150126185,"decrease","NL010","RWZI Utrecht","52.0858002","5.1308398",273738,"KWR Water Research Institute","N/A"
"NL","Zwolle","cannabis",98.16,,2024,,,"no previous data","NL011","RWZI Zwolle","52.51015878","6.049675057",125418,"KWR Water Research Institute","N/A"
"NO","Bergen (2)","cannabis",132.72,,2024,,,"no previous data","NO001","Bergen ","60.39453688","5.289335039",117936,"N/A","N/A"
"NO","Oslo (2)","cannabis",163.11,,2024,,,"no previous data","NO007","Oslo","59.91124354","10.75077126",929199,"N/A","N/A"
"NO","Trondheim (2)","cannabis",110.78,,2024,,,"no previous data","NO009","Trondheim","-36.85091","174.75761",211876,"N/A","N/A"
"PL","Krakow P","cannabis",41.68,37.54,2024,2023,11.0282365476825,"increase","PL003","Krakow Plaszow","50.06","19.94",680000,"Mario Negri Institute","N/A"
"PT","Almada","cannabis",119.1,102.58,2024,2023,16.1045038019107,"increase","PT001","Mutela","38.675187","-9.154345",138685,"INMLCF","N/A"
"PT","Lisbon","cannabis",150.83,113.19,2024,2023,33.2538210089231,"increase","PT002","Alcântara","38.7044907","-9.1754999",426964,"INMLCF","N/A"
"PT","Porto","cannabis",53.74,98.29,2024,2023,-45.3250585003561,"decrease","PT003","Porto","41.157944","-8.629105",150000,"IAQBUS","N/A"
"SE","Gävle","cannabis",44.8,48.68,2024,2023,-7.97041906327034,"stable","SE002","Duvbacken ARV","60.674622","17.14183",88668,"RISE","N/A"
"SE","Karlstad","cannabis",36.84,,2024,,,"no previous data","SE003","N/A","59.40122537","13.5112195",72000,"RISE","N/A"
"SE","Stockholm (2)","cannabis",57.61,,2024,,,"no previous data","SE005","Bromma (BIN); Henriksdals reningsverk","59.329323","18.068581",760407,"N/A","N/A"
"SE","Trollhättan","cannabis",49.74,,2024,,,"no previous data","SE009","N/A","58.28333667","12.28669083",59073,"RISE","N/A"
"SE","Växjö","cannabis",46.85,31.2,2024,2023,50.1602564102564,"increase","SE012"," Sundets ARV","56.858257","14.761215",75410,"RISE","N/A"
"SI","Domžale-Kamnik","cannabis",46.61,65.81,2024,2023,-29.1748974320012,"decrease","SI001","Domžale-Kamnik","46.13788","14.59384",82579,"Jožef Stefan Institute, Environmental department, Laboratory for organic analysis","N/A"
"SI","Koper","cannabis",81.88,167.48,2024,2023,-51.1105803678051,"decrease","SI002","Central wastewater treatment plant Koper","45.548058","13.730188",52118,"Jožef Stefan Institute, Environmental department, Laboratory for organic analysis","N/A"
"SI","Kranj","cannabis",45.65,56.59,2024,2023,-19.3320374624492,"decrease","SI003","Central wastewater treatment plant Kranj","46.242834","14.355542",53222,"Jožef Stefan Institute, Environmental department, Laboratory for organic analysis","N/A"
"SI","Ljubljana","cannabis",90.21,137.36,2024,2023,-34.3258590564939,"decrease","SI004","Central wastewater treatment plant Ljubljana","46.056947","14.505751",282687,"Jožef Stefan Institute, Environmental department, Laboratory for organic analysis","N/A"
"SI","Maribor","cannabis",64.97,88.6,2024,2023,-26.6704288939052,"decrease","SI005","Maribor","46.55734","15.64591",129000,"Jožef Stefan Institute, Environmental department, Laboratory for organic analysis","N/A"
"SI","Novo mesto","cannabis",36.84,73.9,2024,2023,-50.148849797023,"decrease","SI006","Wastewater treatment plant Novo mesto","45.804211","15.16969",25433,"Jožef Stefan Institute, Environmental department, Laboratory for organic analysis","N/A"
"SI","Velenje","cannabis",68.18,78.17,2024,2023,-12.7798388128438,"decrease","SI007","Central wastewater treatment plant Šaleške Doline (Šalek Valley)","46.362274","15.110658",33062,"Jožef Stefan Institute, Environmental department, Laboratory for organic analysis","N/A"
"SK","Bratislava C","cannabis",58.46,34.3,2024,2023,70.4373177842566,"increase","SK002","Central","48.14925","17.106991",450000,"University of South Bohemia in České Budejovice - Vodňany","N/A"
"SK","Piestany","cannabis",52.34,23.42,2024,2023,123.484201537148,"increase","SK004","Piestany","48.5918007","17.8019009",35000,"University of South Bohemia in České Budejovice - Vodňany","N/A"
"TR","Ankara","cannabis",16.86,24.4,2024,2023,-30.9016393442623,"decrease","TR002","Tatlar","39.93436","32.88606",4735531,"Ankara- Lab139","N/A"
"TR","Istanbul (II-VII)","cannabis",16.52,14.16,2024,2023,16.6666666666667,"increase","TR004","ATAKÖY; BALTALİMANI; KADIKÖY; KÜÇÜKÇEKMECE; TUZLA; YENİKAPI","41.013","28.9748",16525000,"Forensic Toxicology Labs. Institute of Forensic Sciences and Legal Medicine, Istanbul University-Cerrahpasa","https://adlitip.istanbulc.edu.tr/tr/_"
"AT","Graz","cocaine",332.85,278.41,2024,2023,19.5538953342193,"increase","AT001","ARA Graz","47.070713","15.439504",425000,"Medical University Innsbruck","N/A"
"AT","Hall-Wattens","cocaine",369.53,329.73,2024,2023,12.070481909441,"increase","AT002","Abwasserverband Hall in Tirol-Fritzens","47.29168","11.59284",76000,"Medical University Innsbruck","N/A"
"AT","Innsbruck","cocaine",522.76,423.39,2024,2023,23.4700866813104,"increase","AT004","ARA Innsbruck","47.269212","11.404102",249000,"Medical University Innsbruck","N/A"
"AT","Kapfenberg","cocaine",166.56,151.36,2024,2023,10.0422832980972,"increase","AT005","Kläranlage Kapfenberg","47.443562","15.2901",36000,"Medical University Innsbruck","N/A"
"AT","Klagenfurt","cocaine",311.32,189.29,2024,2023,64.467219610122,"increase","AT006","Wasserverband Wörthersee Ost","46.635700","14.311817",232000,"Medical University Innsbruck","N/A"
"AT","Knittelfeld","cocaine",163.79,117.53,2024,2023,39.3601633625457,"increase","AT008","AWV Knittelfeld","47.215950","14.82719",37000,"Medical University Innsbruck","N/A"
"AT","Kufstein","cocaine",641.52,589.11,2024,2023,8.89647094770076,"stable","AT010","Abwasserverband Kufstein","47.582958","12.17077",45000,"Medical University Innsbruck","N/A"
"AT","Purgstall","cocaine",66.4,24.89,2024,2023,166.77380474086,"increase","AT013","GAV Erlauftal","48.057812","15.13545",7600,"Medical University Innsbruck","N/A"
"AT","Region Millstättersee","cocaine",172,216.28,2024,2023,-20.4734603292029,"decrease","AT011","Wasserverband Millstaettersee","46.81924","13.52146",93000,"Medical University Innsbruck","N/A"
"AT","Ried im Innkreis","cocaine",95.96,,2024,,,"no previous data","AT014","Reinhaltungsverband Ried im Innkreis","48.2254548","13.478626",28000,"Medical University Innsbruck","N/A"
"AT","Salzburg","cocaine",279.9,253.83,2024,2023,10.2706535870464,"increase","AT015","ARA Siggerwiesen","47.811195","13.033229",415000,"Medical University Innsbruck","N/A"
"AT","Steyr","cocaine",149.75,132.04,2024,2023,13.4126022417449,"increase","AT016","Reinhaltungsverband Steyr und Umgebung","48.050090","14.41827",82000,"Medical University Innsbruck","N/A"
"AT","Strass im Zillertal","cocaine",230.38,223.01,2024,2023,3.30478453880992,"stable","AT017","AIZ Abwasserverband","47.395748","11.82211",130000,"Medical University Innsbruck","N/A"
"AT","Wasserverband Hofsteig","cocaine",342,271.05,2024,2023,26.1759822910902,"increase","AT003","ARA Hofsteig","47.4852","9.6762",105000,"Medical University Innsbruck","N/A"
"AT","Wien","cocaine",443.95,442.74,2024,2023,0.273298098206618,"stable","AT018","Hauptkläranlage Wien","48.210033","16.363449",3166000,"Medical University Innsbruck","N/A"
"AT","Wiener Neustadt","cocaine",277.24,268.27,2024,2023,3.34364632646216,"stable","AT019","AWV Wr. Neustadt-Süd","47.802790","16.23318",140000,"Medical University Innsbruck","N/A"
"AT","Wildon","cocaine",165.58,188.89,2024,2023,-12.3405156440256,"decrease","AT020","Abwasserverband Grazerfeld","46.885708","15.518532",96000,"Medical University Innsbruck","N/A"
"BE","Antwerp Zuid","cocaine",1996.98,1721.58,2024,2023,15.9969330498728,"increase","BE002","Antwerpen-Zuid","51.2","4.39",143240,"Toxicological Centre","N/A"
"BE","Brussels","cocaine",1186.34,598.22,2024,2023,98.3116579184915,"increase","BE005","Brussel-Noord","50.86","4.36",1030306,"Toxicological Centre","N/A"
"CY","Agia Napa","cocaine",46.45,75.59,2024,2023,-38.5500727609472,"decrease","CY001","Sewage treatment plant of Agia Napa-Paralimni","34.99075444704176","33.9999814169353",55382,"Nireas","N/A"
"CY","Larnaca","cocaine",38.79,29.52,2024,2023,31.4024390243902,"increase","CY002","Sewage Bioard of Larnaca","34.915164353041064","33.6361988334665",86577,"Nireas","N/A"
"CY","Limassol","cocaine",97.33,105.54,2024,2023,-7.77904112184954,"stable","CY003","Sewerage Board of Limassol-Amathus (SBLA)","34.69","33.02",213812,"Nireas","N/A"
"CY","Nicosia (2)","cocaine",43.54,65.27,2024,2023,-33.2924774015627,"decrease","CY005","Sewage treatment plant of Pano Deftera (Anthoupoli)-Sewerage Board of Nicosia; Sewage treatment plant of Vathia Gonia-Sewerage Board of Nicosia","35.17","33.4",111510,"N/A","N/A"
"CY","Paphos","cocaine",41.18,35.46,2024,2023,16.1308516638466,"increase","CY007","Sewage Borad of Pafos","34.775853627551825","32.4215949998929",107501,"Nireas","N/A"
"CZ","Brno","cocaine",193.39,115.61,2024,2023,67.2779171351959,"increase","CZ001","Waterworks and sewage of city Brno ","49.19506","16.606837",445000,"FFPW USB","N/A"
"CZ","České Budějovice","cocaine",222.13,128.73,2024,2023,72.5549599937854,"increase","CZ002","UCOV CB","48.96","14.46",110000,"FFPW USB","N/A"
"CZ","Karlovy Vary","cocaine",103.2,130.93,2024,2023,-21.179256091041,"decrease","CZ003","ČOV Karloy Vary","50.23204","12.87099",67544,"T.G.Masaryk Water Research Institute","N/A"
"CZ","Ostrava","cocaine",119.23,99.11,2024,2023,20.3006760165473,"increase","CZ004","ÚČOV Ostrava","49.833864","18.281034",250000,"T.G.Masaryk Water Research Institute","N/A"
"CZ","Plzeň","cocaine",200.1,162.31,2024,2023,23.2826073562935,"increase","CZ005","ČOV Plzeň","49.73945","13.37329",178677,"T.G.Masaryk Water Research Institute","N/A"
"CZ","Prague (2)","cocaine",501.72,,2024,,,"no previous data","CZ006","ÚČOV Praha","50.11584348","14.39671894",1212000,"South Bohemian Research Center of Aquaculture and Biodiversity of Hydrocenoses, University of South Bohemia in Ceske Budejovice","www.frov.jcu.cz/en/"
"CZ","Ústí nad Labem","cocaine",78.95,,2024,,,"no previous data","CZ009","ČOV Ústí - Neštěmice","50.667583","14.10462173",92572,"T.G.Masaryk Water Research Institute","N/A"
"DE","Chemnitz","cocaine",57.48,57.76,2024,2023,-0.48476454293629,"stable","DE008","Chemnitz","50.827845","12.92137",239402,"Clinical Pharmacology TU Dresden","N/A"
"DE","Dortmund","cocaine",480.76,547.65,2024,2023,-12.2140052953529,"decrease","DE009","Deusen","51.52","7.46",404300,"Clinical Pharmacology TU Dresden","N/A"
"DE","Dresden","cocaine",101.92,85.33,2024,2023,19.442165709598,"increase","DE010","Dresden-Kaditz","51.05089","13.73832",671806,"Clinical Pharmacology TU Dresden","N/A"
"DE","Erfurt","cocaine",118.62,120.04,2024,2023,-1.18293902032656,"stable","DE012","Erfurt","50.984768","11.02988",215323,"Clinical Pharmacology TU Dresden","N/A"
"DE","Hamburg N","cocaine",580.61,,2024,,,"no previous data","DE018","Nord","53.551085","9.993682",630000,"IFT Institut für Therapieforschung","N/A"
"DE","Hannover (2)","cocaine",421.51,,2024,,,"no previous data","DE020","Herrenhausen; Gummerwald","52.375892","9.73201",793400,"IFT Institut für Therapieforschung","www.ift.de/index.php"
"DE","Magdeburg","cocaine",226.4,233.94,2024,2023,-3.22304864495169,"stable","DE023","Magdeburg","52.120533","11.627624",281150,"Clinical Pharmacology TU Dresden","N/A"
"DE","Munich G","cocaine",407.64,301.46,2024,2023,35.221919989385,"increase","DE026","Gut Grosslappen","48.14","11.58",1171100,"Clinical Pharmacology TU Dresden","N/A"
"DE","Nuremberg","cocaine",91.62,103.7,2024,2023,-11.648987463838,"decrease","DE028","Nürnberg","49.452102","11.076665",451472,"Clinical Pharmacology TU Dresden","N/A"
"DE","Saarbrücken (2)","cocaine",287.88,244.91,2024,2023,17.5452206933159,"increase","DE030","Brebach; Burbach","49.240157","6.996933",203643,"IFT Institut für Therapieforschung","www.ift.de/index.php"
"DE","Stuttgart","cocaine",436.81,,2024,,,"no previous data","DE033","Stuttgart","48.775846","9.182932",609000,"IFT Institut für Therapieforschung","N/A"
"DK","Aalborg","cocaine",488.12,,2024,,,"no previous data","DK001","Aalborg renseanlæg vest","57.04855704","9.865213642",143141,"Department of Forensic Medicine, Section for Forensic Chemistry, Aarhus University, Denmark","N/A"
"DK","Aarhus","cocaine",287.21,,2024,,,"no previous data","DK002","Marselisborg","56.1631","10.20256",128978,"Department of Forensic Medicine, Section for Forensic Chemistry, Aarhus University, Denmark","N/A"
"DK","Copenhagen","cocaine",548.44,,2024,,,"no previous data","DK003","Lynetten","55.69","12.62",656470,"Department of Forensic Medicine, Section for Forensic Chemistry, Aarhus University, Denmark","N/A"
"DK","Esbjerg","cocaine",382.63,,2024,,,"no previous data","DK004","Esbjerg renseanlæg vest","55.48812791","8.430608708",62017,"Department of Forensic Medicine, Section for Forensic Chemistry, Aarhus University, Denmark","N/A"
"DK","Næstved","cocaine",297.54,,2024,,,"no previous data","DK005","Næstved centralrenseanlæg","55.2229935","11.74855352",69863,"Department of Forensic Medicine, Section for Forensic Chemistry, Aarhus University, Denmark","N/A"
"DK","Odense","cocaine",406.63,,2024,,,"no previous data","DK006","Ejby Mølle","55.40132682133402","10.3875142603132",134364,"Department of Forensic Medicine, Section for Forensic Chemistry, Aarhus University, Denmark","N/A"
"ES","Barcelona","cocaine",349.44,619.47,2024,2023,-43.5904886435179,"decrease","ES001","Baix Llobregat","41.43","1.97",1206813,"IDAEA-CSIC","N/A"
"ES","Castellon","cocaine",752.07,445.24,2024,2023,68.913395022909,"increase","ES002","EDAR Castellón","40.23","-0.12",182103,"IUPA","N/A"
"ES","Lleida","cocaine",623.86,879.41,2024,2023,-29.0592556373023,"decrease","ES004","EDAR Lleida","41.617592","0.620015",149440,"IDAEA-CSIC","N/A"
"ES","Santiago","cocaine",609.79,627.43,2024,2023,-2.81146900849497,"stable","ES007","Silvouta","42.88","-8.54",136500,"IAQBUS","N/A"
"ES","Tarragona","cocaine",1482.91,1463.91,2024,2023,1.29789399621561,"stable","ES008","Tarragona","41.11901451164164","1.24570728603803",150013,"URV","N/A"
"FI","Espoo","cocaine",158.62,134.96,2024,2023,17.5311203319502,"increase","FI001","Blominmäki","60.16","24.71",390000,"THL/Forensic Toxicology","N/A"
"FI","Helsinki","cocaine",224.53,250.72,2024,2023,-10.4459157626037,"decrease","FI002","Viikinmäki","60.23","24.99",9e+05,"THL/Forensic Toxicology","N/A"
"FI","Huittinen","cocaine",3.21,,2024,,,"no previous data","FI003","Huittinen","61.17655889","22.69824858",37000,"THL/Forensic Toxicology","N/A"
"FI","Hämeenlinna","cocaine",47.17,,2024,,,"no previous data","FI004","Paroinen","60.99601","24.46423",67000,"THL/Forensic Toxicology","N/A"
"FI","Joensuu","cocaine",23.45,,2024,,,"no previous data","FI005","Kuhasalo","62.58","29.73",84300,"THL/Forensic Toxicology","N/A"
"FI","Jyväskylä","cocaine",28.41,,2024,,,"no previous data","FI006","Nenäinniemi","62.21","25.77",155000,"THL/Forensic Toxicology","N/A"
"FI","Kajaani","cocaine",17.55,,2024,,,"no previous data","FI007","Peuraniemi","64.227","27.7285",29772,"THL/Forensic Toxicology","N/A"
"FI","Kemi","cocaine",8.15,,2024,,,"no previous data","FI008","Peurasaari","65.73609","24.56363",19368,"THL/Forensic Toxicology","N/A"
"FI","Kokkola","cocaine",3.05,,2024,,,"no previous data","FI009","Hopeakivenlahti","63.83848","23.13048",36000,"THL/Forensic Toxicology","N/A"
"FI","Kotka","cocaine",37.71,,2024,,,"no previous data","FI010","Mussalo","60.45","26.89",95000,"THL/Forensic Toxicology","N/A"
"FI","Kouvola","cocaine",32.39,,2024,,,"no previous data","FI011","Mäkikylä","60.8679","26.70405",70000,"THL/Forensic Toxicology","N/A"
"FI","Kuopio","cocaine",27.42,,2024,,,"no previous data","FI012","Lehtoniemi","62.96","27.01",96034,"THL/Forensic Toxicology","N/A"
"FI","Lahti","cocaine",111.14,,2024,,,"no previous data","FI013","Kariniemi","60.99","25.65",64000,"THL/Forensic Toxicology","N/A"
"FI","Lappeenranta","cocaine",9,,2024,,,"no previous data","FI014","Toikansuo","60.93","27.3",71000,"THL/Forensic Toxicology","N/A"
"FI","Mariehamn","cocaine",17.41,,2024,,,"no previous data","FI015","Lotsbroverket","60.09693","19.93482",20000,"THL/Forensic Toxicology","N/A"
"FI","Mikkeli","cocaine",21.82,,2024,,,"no previous data","FI016","Metsä-Sairila","61.68852","27.27217",48626,"THL/Forensic Toxicology","N/A"
"FI","Oulu","cocaine",29.47,,2024,,,"no previous data","FI017","Taskila","65.05","25.41",202600,"THL/Forensic Toxicology","N/A"
"FI","Pietarsaari","cocaine",2.34,,2024,,,"no previous data","FI018","Alheda","63.67486","22.70256",41100,"THL/Forensic Toxicology","N/A"
"FI","Pori","cocaine",21.11,,2024,,,"no previous data","FI019","Luotsinmäki","61.48519","21.79746",113000,"THL/Forensic Toxicology","N/A"
"FI","Porvoo","cocaine",72.29,,2024,,,"no previous data","FI020","Hermanninsaari","60.34094426","25.61000702",50100,"THL/Forensic Toxicology","N/A"
"FI","Rauma","cocaine",24.69,,2024,,,"no previous data","FI021","Maanpäänniemi","61.12724","21.51127",40000,"THL/Forensic Toxicology","N/A"
"FI","Rovaniemi","cocaine",15.61,,2024,,,"no previous data","FI022","Alakorkalo","66.5","25.72",55000,"THL/Forensic Toxicology","N/A"
"FI","Savonlinna","cocaine",8.66,,2024,,,"no previous data","FI024","Pihlajaniemi","61.86","28.85",24000,"THL/Forensic Toxicology","N/A"
"FI","Seinäjoki","cocaine",11.55,,2024,,,"no previous data","FI025","Seinäjoki","62.79446","22.82822",55000,"THL/Forensic Toxicology","N/A"
"FI","Tampere","cocaine",73.78,47.43,2024,2023,55.5555555555556,"increase","FI026","Viinikanlahti","61.49","23.77",2e+05,"THL/Forensic Toxicology","N/A"
"FI","Turku","cocaine",91.21,59.46,2024,2023,53.397241843256,"increase","FI027","Kakolanmäki","60.44","22.24",3e+05,"THL/Forensic Toxicology","N/A"
"FI","Vaasa","cocaine",23.04,,2024,,,"no previous data","FI028","Patt","63.1","21.62",69252,"THL/Forensic Toxicology","N/A"
"FI","Vihti","cocaine",81.76,,2024,,,"no previous data","FI029","Nummela","60.41699","24.31965",17500,"THL/Forensic Toxicology","N/A"
"GR","Athens","cocaine",181.21,133.39,2024,2023,35.8497638503636,"increase","GR001","City of Athens WWTP","37.9928017","23.7658005",3507341,"Laboratory of Analytical Chemistry (LAC) of the Department of Chemistry of the National and Kapodistrian University of Athens (NKUA)","N/A"
"HR","Split","cocaine",232.99,,2024,,,"no previous data","HR001","Wastewater sampling site at Katalinića Brig, Split","43.51526542","16.44159294",110000,"Department for Water Safety and Supply","N/A"
"HR","Zagreb","cocaine",677.38,567.95,2024,2023,19.267541156792,"increase","HR002","Central wastewater treatment plant of the city of Zagreb ","45.7929993","15.9463997",650000,"Laboratory for analytical chemistry and biogeochemistry of organic compounds","N/A"
"HU","Budapest","cocaine",311.72,,2024,,,"no previous data","HU001","N/A","47.50155794","19.04200692",912698,"N/A","N/A"
"IE","Dublin","cocaine",875.54,,2024,,,"no previous data","IE001","Ringsend ","53.34874586","-6.277189185",1980000,"N/A","N/A"
"IT","Bologna","cocaine",531.55,,2024,,,"no previous data","IT001","IDAR Bologna","44.55171862","11.36449646",6e+05,"Mario Negri Institute","N/A"
"IT","Bozen","cocaine",415.08,447.22,2024,2023,-7.18661956084255,"stable","IT002","Kläranlage Bozen","46.49672","11.358",280000,"Medical University Innsbruck","N/A"
"IT","Milan","cocaine",402.39,369.18,2024,2023,8.99561189663578,"stable","IT003","Nosedo","45.4337997","9.2213602",1148738,"Mario Negri Institute","N/A"
"IT","Rome","cocaine",478.61,,2024,,,"no previous data","IT004","Roma Sud","41.812778","12.4252602",1100000,"Mario Negri Institute","N/A"
"LT","Kaunas","cocaine",254.31,199.4,2024,2023,27.5376128385155,"increase","LT001","Kaunas","54.89687","23.89243",297143,"Toxicological Centre","N/A"
"LT","Klaipeda","cocaine",164.15,92.15,2024,2023,78.1334780249593,"increase","LT002","Klaipeda","55.78282","21.49279",305333,"Toxicological Centre","N/A"
"LT","Vilnius","cocaine",169.07,124.03,2024,2023,36.3137950495848,"increase","LT003","Vilniaus vandenys","54.687156","25.279651",576727,"Toxicological Centre","N/A"
"LU","Luxembourg","cocaine",499.33,,2024,,,"no previous data","LU002","Beggen","49.61164191","6.12649945",157873,"Laboratoire national de santé","N/A"
"LV","Riga","cocaine",202.67,231.72,2024,2023,-12.5366822026584,"decrease","LV001","Riga","56.94965","24.105186",607381,"Toxicological Centre","N/A"
"NL","Amsterdam","cocaine",1206.28,1209.96,2024,2023,-0.3041422856954,"stable","NL001","RWZI Amsterdam-WEST","52.375","4.8666668",699648,"KWR Water Research Institute","N/A"
"NL","Eindhoven","cocaine",809.89,766.11,2024,2023,5.7145840675621,"stable","NL002","RWZI Eindhoven","51.4421082","5.4800701",468599,"KWR Water Research Institute","N/A"
"NL","Groningen","cocaine",932.69,,2024,,,"no previous data","NL003","RWZI Garmerwolde","53.24730146","6.670277244",250722,"KWR Water Research Institute","N/A"
"NL","Rotterdam (2)","cocaine",972.92,1088.44,2024,2023,-10.6133548932417,"decrease","NL007","RWZI Dokhaven; RWZI Kralinserveer","51.92288","4.47847",619563,"N/A","N/A"
"NL","Utrecht","cocaine",688.55,734.55,2024,2023,-6.26233748553536,"stable","NL010","RWZI Utrecht","52.0858002","5.1308398",273738,"KWR Water Research Institute","N/A"
"NL","Zwolle","cocaine",492.68,,2024,,,"no previous data","NL011","RWZI Zwolle","52.51015878","6.049675057",125418,"KWR Water Research Institute","N/A"
"NO","Bergen (2)","cocaine",515.61,,2024,,,"no previous data","NO001","Bergen ","60.39453688","5.289335039",117936,"N/A","N/A"
"NO","Oslo (2)","cocaine",672.16,,2024,,,"no previous data","NO007","Oslo","59.91124354","10.75077126",929199,"N/A","N/A"
"NO","Trondheim (2)","cocaine",264.37,,2024,,,"no previous data","NO009","Trondheim","-36.85091","174.75761",211876,"N/A","N/A"
"PL","Krakow P","cocaine",92.56,70.35,2024,2023,31.5707178393746,"increase","PL003","Krakow Plaszow","50.06","19.94",680000,"Mario Negri Institute","N/A"
"PT","Almada","cocaine",358.61,,2024,,,"no previous data","PT001","Mutela","38.675187","-9.154345",138685,"INMLCF","N/A"
"PT","Lisbon","cocaine",625.08,,2024,,,"no previous data","PT002","Alcântara","38.7044907","-9.1754999",426964,"INMLCF","N/A"
"PT","Porto","cocaine",415.58,512.53,2024,2023,-18.9159658946793,"decrease","PT003","Porto","41.157944","-8.629105",150000,"IAQBUS","N/A"
"RO","Bucharest","cocaine",200.11,175.53,2024,2023,14.0033042784709,"increase","RO001","Glina","44.4275","26.10081",2142929,"Toxicological Centre","N/A"
"SE","Gävle","cocaine",77.08,111.08,2024,2023,-30.6085703997119,"decrease","SE002","Duvbacken ARV","60.674622","17.14183",88668,"RISE","N/A"
"SE","Karlstad","cocaine",108.62,,2024,,,"no previous data","SE003","N/A","59.40122537","13.5112195",72000,"RISE","N/A"
"SE","Stockholm (2)","cocaine",374.23,,2024,,,"no previous data","SE005","Bromma (BIN); Henriksdals reningsverk","59.329323","18.068581",760407,"N/A","N/A"
"SE","Trollhättan","cocaine",92.76,,2024,,,"no previous data","SE009","N/A","58.28333667","12.28669083",59073,"RISE","N/A"
"SE","Växjö","cocaine",82.45,140.57,2024,2023,-41.3459486376894,"decrease","SE012"," Sundets ARV","56.858257","14.761215",75410,"RISE","N/A"
"SI","Domžale-Kamnik","cocaine",360.6,349.88,2024,2023,3.0639076254716,"stable","SI001","Domžale-Kamnik","46.13788","14.59384",82579,"Jožef Stefan Institute, Environmental department, Laboratory for organic analysis","N/A"
"SI","Koper","cocaine",654.84,496.63,2024,2023,31.8567142540725,"increase","SI002","Central wastewater treatment plant Koper","45.548058","13.730188",52118,"Jožef Stefan Institute, Environmental department, Laboratory for organic analysis","N/A"
"SI","Kranj","cocaine",441.84,319.68,2024,2023,38.2132132132132,"increase","SI003","Central wastewater treatment plant Kranj","46.242834","14.355542",53222,"Jožef Stefan Institute, Environmental department, Laboratory for organic analysis","N/A"
"SI","Ljubljana","cocaine",692.72,554.73,2024,2023,24.8751644944387,"increase","SI004","Central wastewater treatment plant Ljubljana","46.056947","14.505751",282687,"Jožef Stefan Institute, Environmental department, Laboratory for organic analysis","N/A"
"SI","Maribor","cocaine",447.91,394.89,2024,2023,13.4265238420826,"increase","SI005","Maribor","46.55734","15.64591",129000,"Jožef Stefan Institute, Environmental department, Laboratory for organic analysis","N/A"
"SI","Novo mesto","cocaine",318.89,303.06,2024,2023,5.22338810796541,"stable","SI006","Wastewater treatment plant Novo mesto","45.804211","15.16969",25433,"Jožef Stefan Institute, Environmental department, Laboratory for organic analysis","N/A"
"SI","Velenje","cocaine",258.7,376.11,2024,2023,-31.2169312169312,"decrease","SI007","Central wastewater treatment plant Šaleške Doline (Šalek Valley)","46.362274","15.110658",33062,"Jožef Stefan Institute, Environmental department, Laboratory for organic analysis","N/A"
"SK","Bratislava C","cocaine",316.79,194.71,2024,2023,62.6983719377536,"increase","SK002","Central","48.14925","17.106991",450000,"University of South Bohemia in České Budejovice - Vodňany","N/A"
"SK","Piestany","cocaine",60.27,35.77,2024,2023,68.4931506849315,"increase","SK004","Piestany","48.5918007","17.8019009",35000,"University of South Bohemia in České Budejovice - Vodňany","N/A"
"TR","Ankara","cocaine",14.38,10.61,2024,2023,35.5325164938737,"increase","TR002","Tatlar","39.93436","32.88606",4735531,"Ankara- Lab139","N/A"
"TR","Istanbul (II-VII)","cocaine",42.05,,2024,,,"no previous data","TR004","ATAKÖY; BALTALİMANI; KADIKÖY; KÜÇÜKÇEKMECE; TUZLA; YENİKAPI","41.013","28.9748",16525000,"Forensic Toxicology Labs. Institute of Forensic Sciences and Legal Medicine, Istanbul University-Cerrahpasa","https://adlitip.istanbulc.edu.tr/tr/_"
"BE","Antwerp Zuid","ketamine",71.46,88.47,2024,2023,-19.2268565615463,"decrease","BE002","Antwerpen-Zuid","51.2","4.39",143240,"Toxicological Centre","N/A"
"BE","Brussels","ketamine",43.38,25.06,2024,2023,73.1045490822027,"increase","BE005","Brussel-Noord","50.86","4.36",1030306,"Toxicological Centre","N/A"
"CY","Agia Napa","ketamine",0,1.26,2024,2023,-100,"decrease","CY001","Sewage treatment plant of Agia Napa-Paralimni","34.99075444704176","33.9999814169353",55382,"Nireas","N/A"
"CY","Larnaca","ketamine",0,0,2024,2023,,"stable","CY002","Sewage Bioard of Larnaca","34.915164353041064","33.6361988334665",86577,"Nireas","N/A"
"CY","Limassol","ketamine",3.5,0.9,2024,2023,288.888888888889,"increase","CY003","Sewerage Board of Limassol-Amathus (SBLA)","34.69","33.02",213812,"Nireas","N/A"
"CY","Nicosia (2)","ketamine",0,0,2024,2023,,"stable","CY005","Sewage treatment plant of Pano Deftera (Anthoupoli)-Sewerage Board of Nicosia; Sewage treatment plant of Vathia Gonia-Sewerage Board of Nicosia","35.17","33.4",111510,"N/A","N/A"
"CY","Paphos","ketamine",1.28,0,2024,2023,Inf,"increase","CY007","Sewage Borad of Pafos","34.775853627551825","32.4215949998929",107501,"Nireas","N/A"
"CZ","Brno","ketamine",3.82,2.01,2024,2023,90.0497512437811,"increase","CZ001","Waterworks and sewage of city Brno ","49.19506","16.606837",445000,"FFPW USB","N/A"
"CZ","České Budějovice","ketamine",1.16,1.45,2024,2023,-20,"decrease","CZ002","UCOV CB","48.96","14.46",110000,"FFPW USB","N/A"
"CZ","Karlovy Vary","ketamine",0,,2024,,,"no previous data","CZ003","ČOV Karloy Vary","50.23204","12.87099",67544,"T.G.Masaryk Water Research Institute","N/A"
"CZ","Ostrava","ketamine",1.55,1.67,2024,2023,-7.18562874251496,"stable","CZ004","ÚČOV Ostrava","49.833864","18.281034",250000,"T.G.Masaryk Water Research Institute","N/A"
"CZ","Plzeň","ketamine",2.41,,2024,,,"no previous data","CZ005","ČOV Plzeň","49.73945","13.37329",178677,"T.G.Masaryk Water Research Institute","N/A"
"CZ","Prague (2)","ketamine",13.59,,2024,,,"no previous data","CZ006","ÚČOV Praha","50.11584348","14.39671894",1212000,"South Bohemian Research Center of Aquaculture and Biodiversity of Hydrocenoses, University of South Bohemia in Ceske Budejovice","www.frov.jcu.cz/en/"
"CZ","Ústí nad Labem","ketamine",5.21,,2024,,,"no previous data","CZ009","ČOV Ústí - Neštěmice","50.667583","14.10462173",92572,"T.G.Masaryk Water Research Institute","N/A"
"DE","Chemnitz","ketamine",0,,2024,,,"no previous data","DE008","Chemnitz","50.827845","12.92137",239402,"Clinical Pharmacology TU Dresden","N/A"
"DE","Dortmund","ketamine",11.54,11.03,2024,2023,4.62375339981867,"stable","DE009","Deusen","51.52","7.46",404300,"Clinical Pharmacology TU Dresden","N/A"
"DE","Dresden","ketamine",21.59,27.05,2024,2023,-20.184842883549,"decrease","DE010","Dresden-Kaditz","51.05089","13.73832",671806,"Clinical Pharmacology TU Dresden","N/A"
"DE","Erfurt","ketamine",13.28,4.1,2024,2023,223.90243902439,"increase","DE012","Erfurt","50.984768","11.02988",215323,"Clinical Pharmacology TU Dresden","N/A"
"DE","Hamburg N","ketamine",27.11,,2024,,,"no previous data","DE018","Nord","53.551085","9.993682",630000,"IFT Institut für Therapieforschung","N/A"
"DE","Hannover (2)","ketamine",19.13,,2024,,,"no previous data","DE020","Herrenhausen; Gummerwald","52.375892","9.73201",793400,"IFT Institut für Therapieforschung","www.ift.de/index.php"
"DE","Magdeburg","ketamine",12.77,29.6,2024,2023,-56.8581081081081,"decrease","DE023","Magdeburg","52.120533","11.627624",281150,"Clinical Pharmacology TU Dresden","N/A"
"DE","Munich G","ketamine",14.51,19.29,2024,2023,-24.779678589943,"decrease","DE026","Gut Grosslappen","48.14","11.58",1171100,"Clinical Pharmacology TU Dresden","N/A"
"DE","Nuremberg","ketamine",11.96,24.03,2024,2023,-50.2288805659592,"decrease","DE028","Nürnberg","49.452102","11.076665",451472,"Clinical Pharmacology TU Dresden","N/A"
"DE","Saarbrücken (2)","ketamine",9.42,8.08,2024,2023,16.5841584158416,"increase","DE030","Brebach; Burbach","49.240157","6.996933",203643,"IFT Institut für Therapieforschung","www.ift.de/index.php"
"DE","Stuttgart","ketamine",14.74,,2024,,,"no previous data","DE033","Stuttgart","48.775846","9.182932",609000,"IFT Institut für Therapieforschung","N/A"
"DK","Aalborg","ketamine",30.39,,2024,,,"no previous data","DK001","Aalborg renseanlæg vest","57.04855704","9.865213642",143141,"Department of Forensic Medicine, Section for Forensic Chemistry, Aarhus University, Denmark","N/A"
"DK","Aarhus","ketamine",3.4,4.92,2024,2023,-30.8943089430894,"decrease","DK002","Marselisborg","56.1631","10.20256",128978,"Department of Forensic Medicine, Section for Forensic Chemistry, Aarhus University, Denmark","N/A"
"DK","Copenhagen","ketamine",33.44,,2024,,,"no previous data","DK003","Lynetten","55.69","12.62",656470,"Department of Forensic Medicine, Section for Forensic Chemistry, Aarhus University, Denmark","N/A"
"DK","Esbjerg","ketamine",6.74,,2024,,,"no previous data","DK004","Esbjerg renseanlæg vest","55.48812791","8.430608708",62017,"Department of Forensic Medicine, Section for Forensic Chemistry, Aarhus University, Denmark","N/A"
"DK","Næstved","ketamine",14.73,,2024,,,"no previous data","DK005","Næstved centralrenseanlæg","55.2229935","11.74855352",69863,"Department of Forensic Medicine, Section for Forensic Chemistry, Aarhus University, Denmark","N/A"
"DK","Odense","ketamine",7.22,,2024,,,"no previous data","DK006","Ejby Mølle","55.40132682133402","10.3875142603132",134364,"Department of Forensic Medicine, Section for Forensic Chemistry, Aarhus University, Denmark","N/A"
"ES","Barcelona","ketamine",55.96,52.18,2024,2023,7.244154848601,"stable","ES001","Baix Llobregat","41.43","1.97",1206813,"IDAEA-CSIC","N/A"
"ES","Castellon","ketamine",8.53,3,2024,2023,184.333333333333,"increase","ES002","EDAR Castellón","40.23","-0.12",182103,"IUPA","N/A"
"ES","Lleida","ketamine",10.61,8.87,2024,2023,19.6166854565953,"increase","ES004","EDAR Lleida","41.617592","0.620015",149440,"IDAEA-CSIC","N/A"
"ES","Santiago","ketamine",3.97,,2024,,,"no previous data","ES007","Silvouta","42.88","-8.54",136500,"IAQBUS","N/A"
"ES","Tarragona","ketamine",30.77,,2024,,,"no previous data","ES008","Tarragona","41.11901451164164","1.24570728603803",150013,"URV","N/A"
"FI","Espoo","ketamine",3.95,,2024,,,"no previous data","FI001","Blominmäki","60.16","24.71",390000,"THL/Forensic Toxicology","N/A"
"FI","Helsinki","ketamine",10.28,,2024,,,"no previous data","FI002","Viikinmäki","60.23","24.99",9e+05,"THL/Forensic Toxicology","N/A"
"FI","Tampere","ketamine",10.89,,2024,,,"no previous data","FI026","Viinikanlahti","61.49","23.77",2e+05,"THL/Forensic Toxicology","N/A"
"FI","Turku","ketamine",5.4,,2024,,,"no previous data","FI027","Kakolanmäki","60.44","22.24",3e+05,"THL/Forensic Toxicology","N/A"
"FR","Paris Seine Centre","ketamine",15.75,31.81,2024,2023,-50.4872681546683,"decrease","FR005","Seine Centre","48.95","2.27",2700000,"METIS","N/A"
"GR","Athens","ketamine",0,0,2024,2023,,"stable","GR001","City of Athens WWTP","37.9928017","23.7658005",3507341,"Laboratory of Analytical Chemistry (LAC) of the Department of Chemistry of the National and Kapodistrian University of Athens (NKUA)","N/A"
"HR","Split","ketamine",12.59,,2024,,,"no previous data","HR001","Wastewater sampling site at Katalinića Brig, Split","43.51526542","16.44159294",110000,"Department for Water Safety and Supply","N/A"
"HU","Budapest","ketamine",79.5,,2024,,,"no previous data","HU001","N/A","47.50155794","19.04200692",912698,"N/A","N/A"
"IE","Dublin","ketamine",43.49,,2024,,,"no previous data","IE001","Ringsend ","53.34874586","-6.277189185",1980000,"N/A","N/A"
"IT","Bologna","ketamine",31.81,,2024,,,"no previous data","IT001","IDAR Bologna","44.55171862","11.36449646",6e+05,"Mario Negri Institute","N/A"
"IT","Milan","ketamine",24.92,22.98,2024,2023,8.44212358572672,"stable","IT003","Nosedo","45.4337997","9.2213602",1148738,"Mario Negri Institute","N/A"
"IT","Rome","ketamine",8.95,,2024,,,"no previous data","IT004","Roma Sud","41.812778","12.4252602",1100000,"Mario Negri Institute","N/A"
"LT","Kaunas","ketamine",0,0,2024,2023,,"stable","LT001","Kaunas","54.89687","23.89243",297143,"Toxicological Centre","N/A"
"LT","Klaipeda","ketamine",0,0,2024,2023,,"stable","LT002","Klaipeda","55.78282","21.49279",305333,"Toxicological Centre","N/A"
"LT","Vilnius","ketamine",4.48,10.68,2024,2023,-58.0524344569288,"decrease","LT003","Vilniaus vandenys","54.687156","25.279651",576727,"Toxicological Centre","N/A"
"LU","Luxembourg","ketamine",12.4,,2024,,,"no previous data","LU002","Beggen","49.61164191","6.12649945",157873,"Laboratoire national de santé","N/A"
"LV","Riga","ketamine",0,0,2024,2023,,"stable","LV001","Riga","56.94965","24.105186",607381,"Toxicological Centre","N/A"
"NL","Amsterdam","ketamine",132.21,,2024,,,"no previous data","NL001","RWZI Amsterdam-WEST","52.375","4.8666668",699648,"KWR Water Research Institute","N/A"
"NL","Eindhoven","ketamine",90.77,,2024,,,"no previous data","NL002","RWZI Eindhoven","51.4421082","5.4800701",468599,"KWR Water Research Institute","N/A"
"NL","Groningen","ketamine",41.28,,2024,,,"no previous data","NL003","RWZI Garmerwolde","53.24730146","6.670277244",250722,"KWR Water Research Institute","N/A"
"NL","Rotterdam (2)","ketamine",61.44,76.69,2024,2023,-19.885252314513,"decrease","NL007","RWZI Dokhaven; RWZI Kralinserveer","51.92288","4.47847",619563,"N/A","N/A"
"NL","Utrecht","ketamine",44.25,,2024,,,"no previous data","NL010","RWZI Utrecht","52.0858002","5.1308398",273738,"KWR Water Research Institute","N/A"
"NL","Zwolle","ketamine",29.59,,2024,,,"no previous data","NL011","RWZI Zwolle","52.51015878","6.049675057",125418,"KWR Water Research Institute","N/A"
"NO","Bergen (2)","ketamine",37.9,,2024,,,"no previous data","NO001","Bergen ","60.39453688","5.289335039",117936,"N/A","N/A"
"NO","Oslo (2)","ketamine",65.51,,2024,,,"no previous data","NO007","Oslo","59.91124354","10.75077126",929199,"N/A","N/A"
"NO","Trondheim (2)","ketamine",9.59,,2024,,,"no previous data","NO009","Trondheim","-36.85091","174.75761",211876,"N/A","N/A"
"PL","Krakow P","ketamine",4.05,4.23,2024,2023,-4.25531914893618,"stable","PL003","Krakow Plaszow","50.06","19.94",680000,"Mario Negri Institute","N/A"
"PT","Almada","ketamine",3.03,,2024,,,"no previous data","PT001","Mutela","38.675187","-9.154345",138685,"INMLCF","N/A"
"PT","Lisbon","ketamine",14.28,,2024,,,"no previous data","PT002","Alcântara","38.7044907","-9.1754999",426964,"INMLCF","N/A"
"PT","Porto","ketamine",0.94,,2024,,,"no previous data","PT003","Porto","41.157944","-8.629105",150000,"IAQBUS","N/A"
"RO","Bucharest","ketamine",11.17,9.23,2024,2023,21.0184182015168,"increase","RO001","Glina","44.4275","26.10081",2142929,"Toxicological Centre","N/A"
"SE","Gävle","ketamine",3.5,14.1,2024,2023,-75.177304964539,"decrease","SE002","Duvbacken ARV","60.674622","17.14183",88668,"RISE","N/A"
"SE","Karlstad","ketamine",4,,2024,,,"no previous data","SE003","N/A","59.40122537","13.5112195",72000,"RISE","N/A"
"SE","Stockholm (2)","ketamine",14.96,,2024,,,"no previous data","SE005","Bromma (BIN); Henriksdals reningsverk","59.329323","18.068581",760407,"N/A","N/A"
"SE","Trollhättan","ketamine",1.88,,2024,,,"no previous data","SE009","N/A","58.28333667","12.28669083",59073,"RISE","N/A"
"SE","Växjö","ketamine",2.24,2.41,2024,2023,-7.05394190871369,"stable","SE012"," Sundets ARV","56.858257","14.761215",75410,"RISE","N/A"
"SI","Domžale-Kamnik","ketamine",0,0,2024,2023,,"stable","SI001","Domžale-Kamnik","46.13788","14.59384",82579,"Jožef Stefan Institute, Environmental department, Laboratory for organic analysis","N/A"
"SI","Koper","ketamine",0,0,2024,2023,,"stable","SI002","Central wastewater treatment plant Koper","45.548058","13.730188",52118,"Jožef Stefan Institute, Environmental department, Laboratory for organic analysis","N/A"
"SI","Kranj","ketamine",1.48,1.33,2024,2023,11.2781954887218,"increase","SI003","Central wastewater treatment plant Kranj","46.242834","14.355542",53222,"Jožef Stefan Institute, Environmental department, Laboratory for organic analysis","N/A"
"SI","Ljubljana","ketamine",8.09,16.65,2024,2023,-51.4114114114114,"decrease","SI004","Central wastewater treatment plant Ljubljana","46.056947","14.505751",282687,"Jožef Stefan Institute, Environmental department, Laboratory for organic analysis","N/A"
"SI","Maribor","ketamine",1.36,0,2024,2023,Inf,"increase","SI005","Maribor","46.55734","15.64591",129000,"Jožef Stefan Institute, Environmental department, Laboratory for organic analysis","N/A"
"SI","Novo mesto","ketamine",2.01,0,2024,2023,Inf,"increase","SI006","Wastewater treatment plant Novo mesto","45.804211","15.16969",25433,"Jožef Stefan Institute, Environmental department, Laboratory for organic analysis","N/A"
"SI","Velenje","ketamine",0,0,2024,2023,,"stable","SI007","Central wastewater treatment plant Šaleške Doline (Šalek Valley)","46.362274","15.110658",33062,"Jožef Stefan Institute, Environmental department, Laboratory for organic analysis","N/A"
"SK","Bratislava C","ketamine",5.3,3.71,2024,2023,42.8571428571429,"increase","SK002","Central","48.14925","17.106991",450000,"University of South Bohemia in České Budejovice - Vodňany","N/A"
"SK","Piestany","ketamine",2.61,0.75,2024,2023,248,"increase","SK004","Piestany","48.5918007","17.8019009",35000,"University of South Bohemia in České Budejovice - Vodňany","N/A"
"AT","Graz","methamphetamine",6.38,11.55,2024,2023,-44.7619047619048,"decrease","AT001","ARA Graz","47.070713","15.439504",425000,"Medical University Innsbruck","N/A"
"AT","Hall-Wattens","methamphetamine",7.22,3.99,2024,2023,80.9523809523809,"increase","AT002","Abwasserverband Hall in Tirol-Fritzens","47.29168","11.59284",76000,"Medical University Innsbruck","N/A"
"AT","Innsbruck","methamphetamine",9.09,11.83,2024,2023,-23.1614539306847,"decrease","AT004","ARA Innsbruck","47.269212","11.404102",249000,"Medical University Innsbruck","N/A"
"AT","Kapfenberg","methamphetamine",1.13,2.32,2024,2023,-51.2931034482759,"decrease","AT005","Kläranlage Kapfenberg","47.443562","15.2901",36000,"Medical University Innsbruck","N/A"
"AT","Klagenfurt","methamphetamine",0.81,0,2024,2023,Inf,"increase","AT006","Wasserverband Wörthersee Ost","46.635700","14.311817",232000,"Medical University Innsbruck","N/A"
"AT","Knittelfeld","methamphetamine",0.74,1.69,2024,2023,-56.2130177514793,"decrease","AT008","AWV Knittelfeld","47.215950","14.82719",37000,"Medical University Innsbruck","N/A"
"AT","Kufstein","methamphetamine",0.68,1.61,2024,2023,-57.7639751552795,"decrease","AT010","Abwasserverband Kufstein","47.582958","12.17077",45000,"Medical University Innsbruck","N/A"
"AT","Purgstall","methamphetamine",11.23,6.39,2024,2023,75.7433489827856,"increase","AT013","GAV Erlauftal","48.057812","15.13545",7600,"Medical University Innsbruck","N/A"
"AT","Region Millstättersee","methamphetamine",0.84,0,2024,2023,Inf,"increase","AT011","Wasserverband Millstaettersee","46.81924","13.52146",93000,"Medical University Innsbruck","N/A"
"AT","Ried im Innkreis","methamphetamine",9.01,,2024,,,"no previous data","AT014","Reinhaltungsverband Ried im Innkreis","48.2254548","13.478626",28000,"Medical University Innsbruck","N/A"
"AT","Salzburg","methamphetamine",4.78,3.1,2024,2023,54.1935483870968,"increase","AT015","ARA Siggerwiesen","47.811195","13.033229",415000,"Medical University Innsbruck","N/A"
"AT","Steyr","methamphetamine",16.98,19.66,2024,2023,-13.6317395727365,"decrease","AT016","Reinhaltungsverband Steyr und Umgebung","48.050090","14.41827",82000,"Medical University Innsbruck","N/A"
"AT","Strass im Zillertal","methamphetamine",16.2,3.74,2024,2023,333.155080213904,"increase","AT017","AIZ Abwasserverband","47.395748","11.82211",130000,"Medical University Innsbruck","N/A"
"AT","Wasserverband Hofsteig","methamphetamine",2.36,1,2024,2023,136,"increase","AT003","ARA Hofsteig","47.4852","9.6762",105000,"Medical University Innsbruck","N/A"
"AT","Wien","methamphetamine",28.98,20.81,2024,2023,39.2599711677078,"increase","AT018","Hauptkläranlage Wien","48.210033","16.363449",3166000,"Medical University Innsbruck","N/A"
"AT","Wiener Neustadt","methamphetamine",22.05,31.58,2024,2023,-30.1773274224192,"decrease","AT019","AWV Wr. Neustadt-Süd","47.802790","16.23318",140000,"Medical University Innsbruck","N/A"
"AT","Wildon","methamphetamine",4.16,8.29,2024,2023,-49.8190591073583,"decrease","AT020","Abwasserverband Grazerfeld","46.885708","15.518532",96000,"Medical University Innsbruck","N/A"
"BE","Antwerp Zuid","methamphetamine",93.94,44.4,2024,2023,111.576576576577,"increase","BE002","Antwerpen-Zuid","51.2","4.39",143240,"Toxicological Centre","N/A"
"BE","Brussels","methamphetamine",40.26,16.45,2024,2023,144.741641337386,"increase","BE005","Brussel-Noord","50.86","4.36",1030306,"Toxicological Centre","N/A"
"CY","Agia Napa","methamphetamine",5.08,4.7,2024,2023,8.08510638297872,"stable","CY001","Sewage treatment plant of Agia Napa-Paralimni","34.99075444704176","33.9999814169353",55382,"Nireas","N/A"
"CY","Larnaca","methamphetamine",16.52,10.69,2024,2023,54.5369504209542,"increase","CY002","Sewage Bioard of Larnaca","34.915164353041064","33.6361988334665",86577,"Nireas","N/A"
"CY","Limassol","methamphetamine",15.9,18.96,2024,2023,-16.1392405063291,"decrease","CY003","Sewerage Board of Limassol-Amathus (SBLA)","34.69","33.02",213812,"Nireas","N/A"
"CY","Nicosia (2)","methamphetamine",10.82,9.17,2024,2023,17.9934569247546,"increase","CY005","Sewage treatment plant of Pano Deftera (Anthoupoli)-Sewerage Board of Nicosia; Sewage treatment plant of Vathia Gonia-Sewerage Board of Nicosia","35.17","33.4",111510,"N/A","N/A"
"CY","Paphos","methamphetamine",16.56,16.54,2024,2023,0.120918984280529,"stable","CY007","Sewage Borad of Pafos","34.775853627551825","32.4215949998929",107501,"Nireas","N/A"
"CZ","Brno","methamphetamine",417.53,307.73,2024,2023,35.6806291229324,"increase","CZ001","Waterworks and sewage of city Brno ","49.19506","16.606837",445000,"FFPW USB","N/A"
"CZ","České Budějovice","methamphetamine",462.75,592.33,2024,2023,-21.876318943832,"decrease","CZ002","UCOV CB","48.96","14.46",110000,"FFPW USB","N/A"
"CZ","Karlovy Vary","methamphetamine",371.95,306.2,2024,2023,21.4728935336381,"increase","CZ003","ČOV Karloy Vary","50.23204","12.87099",67544,"T.G.Masaryk Water Research Institute","N/A"
"CZ","Ostrava","methamphetamine",577.04,614.44,2024,2023,-6.08684330447238,"stable","CZ004","ÚČOV Ostrava","49.833864","18.281034",250000,"T.G.Masaryk Water Research Institute","N/A"
"CZ","Plzeň","methamphetamine",484.72,317.82,2024,2023,52.5140016361463,"increase","CZ005","ČOV Plzeň","49.73945","13.37329",178677,"T.G.Masaryk Water Research Institute","N/A"
"CZ","Prague (2)","methamphetamine",408.54,,2024,,,"no previous data","CZ006","ÚČOV Praha","50.11584348","14.39671894",1212000,"South Bohemian Research Center of Aquaculture and Biodiversity of Hydrocenoses, University of South Bohemia in Ceske Budejovice","www.frov.jcu.cz/en/"
"CZ","Ústí nad Labem","methamphetamine",595.46,,2024,,,"no previous data","CZ009","ČOV Ústí - Neštěmice","50.667583","14.10462173",92572,"T.G.Masaryk Water Research Institute","N/A"
"DE","Chemnitz","methamphetamine",362,346.34,2024,2023,4.52156840099325,"stable","DE008","Chemnitz","50.827845","12.92137",239402,"Clinical Pharmacology TU Dresden","N/A"
"DE","Dortmund","methamphetamine",0,0,2024,2023,,"stable","DE009","Deusen","51.52","7.46",404300,"Clinical Pharmacology TU Dresden","N/A"
"DE","Dresden","methamphetamine",399.64,316.83,2024,2023,26.1370451030521,"increase","DE010","Dresden-Kaditz","51.05089","13.73832",671806,"Clinical Pharmacology TU Dresden","N/A"
"DE","Erfurt","methamphetamine",334.94,334.42,2024,2023,0.155493092518385,"stable","DE012","Erfurt","50.984768","11.02988",215323,"Clinical Pharmacology TU Dresden","N/A"
"DE","Hamburg N","methamphetamine",10.43,,2024,,,"no previous data","DE018","Nord","53.551085","9.993682",630000,"IFT Institut für Therapieforschung","N/A"
"DE","Hannover (2)","methamphetamine",5.42,,2024,,,"no previous data","DE020","Herrenhausen; Gummerwald","52.375892","9.73201",793400,"IFT Institut für Therapieforschung","www.ift.de/index.php"
"DE","Magdeburg","methamphetamine",195.41,163.31,2024,2023,19.6558692058049,"increase","DE023","Magdeburg","52.120533","11.627624",281150,"Clinical Pharmacology TU Dresden","N/A"
"DE","Munich G","methamphetamine",18.86,14.36,2024,2023,31.3370473537604,"increase","DE026","Gut Grosslappen","48.14","11.58",1171100,"Clinical Pharmacology TU Dresden","N/A"
"DE","Nuremberg","methamphetamine",175.17,167.89,2024,2023,4.33617249389481,"stable","DE028","Nürnberg","49.452102","11.076665",451472,"Clinical Pharmacology TU Dresden","N/A"
"DE","Saarbrücken (2)","methamphetamine",0,1.61,2024,2023,-100,"decrease","DE030","Brebach; Burbach","49.240157","6.996933",203643,"IFT Institut für Therapieforschung","www.ift.de/index.php"
"DE","Stuttgart","methamphetamine",14.21,,2024,,,"no previous data","DE033","Stuttgart","48.775846","9.182932",609000,"IFT Institut für Therapieforschung","N/A"
"DK","Aalborg","methamphetamine",4.26,,2024,,,"no previous data","DK001","Aalborg renseanlæg vest","57.04855704","9.865213642",143141,"Department of Forensic Medicine, Section for Forensic Chemistry, Aarhus University, Denmark","N/A"
"DK","Aarhus","methamphetamine",6.72,1.81,2024,2023,271.270718232044,"increase","DK002","Marselisborg","56.1631","10.20256",128978,"Department of Forensic Medicine, Section for Forensic Chemistry, Aarhus University, Denmark","N/A"
"DK","Copenhagen","methamphetamine",25.38,,2024,,,"no previous data","DK003","Lynetten","55.69","12.62",656470,"Department of Forensic Medicine, Section for Forensic Chemistry, Aarhus University, Denmark","N/A"
"DK","Esbjerg","methamphetamine",2.58,,2024,,,"no previous data","DK004","Esbjerg renseanlæg vest","55.48812791","8.430608708",62017,"Department of Forensic Medicine, Section for Forensic Chemistry, Aarhus University, Denmark","N/A"
"DK","Næstved","methamphetamine",0.91,,2024,,,"no previous data","DK005","Næstved centralrenseanlæg","55.2229935","11.74855352",69863,"Department of Forensic Medicine, Section for Forensic Chemistry, Aarhus University, Denmark","N/A"
"DK","Odense","methamphetamine",1.5,,2024,,,"no previous data","DK006","Ejby Mølle","55.40132682133402","10.3875142603132",134364,"Department of Forensic Medicine, Section for Forensic Chemistry, Aarhus University, Denmark","N/A"
"ES","Barcelona","methamphetamine",52.36,59.9,2024,2023,-12.5876460767947,"decrease","ES001","Baix Llobregat","41.43","1.97",1206813,"IDAEA-CSIC","N/A"
"ES","Lleida","methamphetamine",0,2.61,2024,2023,-100,"decrease","ES004","EDAR Lleida","41.617592","0.620015",149440,"IDAEA-CSIC","N/A"
"ES","Santiago","methamphetamine",0,0,2024,2023,,"stable","ES007","Silvouta","42.88","-8.54",136500,"IAQBUS","N/A"
"FI","Espoo","methamphetamine",16.71,19.51,2024,2023,-14.3516145566376,"decrease","FI001","Blominmäki","60.16","24.71",390000,"THL/Forensic Toxicology","N/A"
